id,name,mindate,maxdate,latitude,longitude,elevation
GHCND:CA004034912,"MANKOTA 2, MT US",1971-07-01,1984-01-31,49,-106.95,785
GHCND:US1MTBH0001,"HARDIN 6.7 N CLOSED, MT US",2008-10-23,2013-10-15,45.8281,-107.6336,880
GHCND:US1MTBH0002,"HARDIN 0.6 ENE, MT US",2008-10-21,2026-01-16,45.736,-107.602,883.9
GHCND:US1MTBH0003,"LAME DEER 7.9 WSW, MT US",2010-06-11,2025-12-20,45.55893333,-106.7507,1046.4
GHCND:US1MTBH0004,"LODGE GRASS 4.5 N, MT US",2010-11-19,2021-05-29,45.3796,-107.3778,994.6
GHCND:US1MTBH0005,"HARDIN 0.4 SW CLOSED, MT US",2011-01-02,2014-11-17,45.728198,-107.61838,887.9
GHCND:US1MTBH0006,"FORT SMITH 0.5 ENE, MT US",2013-03-30,2026-01-15,45.31085,-107.916314,1000.7
GHCND:US1MTBL0002,"HOGELAND 7.0 SSE, MT US",2011-06-03,2025-08-21,48.750099,-108.600151,961.3
GHCND:US1MTBV0002,"DILLON 5.3 ENE, MT US",2008-01-07,2026-01-08,45.243357,-112.533426,1615.1
GHCND:US1MTBV0005,"DILLON 0.4 ESE, MT US",2011-02-03,2011-09-16,45.213781,-112.627248,1552
GHCND:US1MTBV0007,"DILLON 1.2 SSE, MT US",2015-05-22,2025-10-20,45.199404,-112.626887,1596.5
GHCND:US1MTBV0008,"DILLON 10.1 NE, MT US",2015-05-30,2025-10-12,45.32079,-112.48931,1558.4
GHCND:US1MTBV0009,"DELL 0.2 E, MT US",2015-06-01,2018-06-19,44.72322,-112.69425,1831.2
GHCND:US1MTBV0011,"LIMA 38.4 E, MT US",2015-07-14,2018-10-13,44.599688,-111.812824,2052.8
GHCND:US1MTBV0017,"DILLON 0.8 SSW, MT US",2015-07-24,2021-08-20,45.2059,-112.6435,1566.7
GHCND:US1MTBV0018,"POLARIS 3.7 NNE, MT US",2015-08-02,2021-04-09,45.4219,-113.102,2022.7
GHCND:US1MTBV0019,"LIMA 35.2 E, MT US",2015-07-16,2017-09-11,44.697512,-111.880993,2060.1
GHCND:US1MTBV0020,"LIMA 0.3 NNW, MT US",2015-07-30,2021-01-21,44.6422,-112.5932,1902.9
GHCND:US1MTBV0021,"GLEN 4.7 SE, MT US",2013-11-17,2016-06-16,45.4254,-112.6361,1556
GHCND:US1MTBV0022,"GLEN 0.2 SE, MT US",2015-08-23,2026-01-16,45.4752,-112.6876,1521
GHCND:US1MTBV0024,"DILLON 0.5 NE, MT US",2016-04-28,2020-06-18,45.221515,-112.626423,1551.1
GHCND:US1MTBW0001,"TOWNSEND 11.5 E, MT US",2008-06-16,2017-11-03,46.3346,-111.2827,1480.7
GHCND:US1MTBW0003,"THREE FORKS 6.6 NNW, MT US",2020-07-25,2021-12-15,45.977472,-111.607206,1352.4
GHCND:US1MTCB0001,"ROBERTS 5.9 NNW CLOSED, MT US",2007-05-02,2011-10-03,45.44306,-109.184839,1285.3
GHCND:US1MTCB0003,"RED LODGE 0.5 NNW CLOSED, MT US",2009-08-12,2016-10-29,45.197509,-109.252095,1720
GHCND:US1MTCB0004,"RED LODGE 6.2 NNE, MT US",2009-10-27,2025-12-03,45.27857,-109.21922,1535
GHCND:US1MTCB0005,"RED LODGE 3.0 SW, MT US",2010-10-01,2026-01-16,45.16126,-109.29107,1852
GHCND:US1MTCB0007,"RED LODGE 1.0 S CLOSED, MT US",2010-10-05,2014-09-16,45.177111,-109.250554,1711.8
GHCND:US1MTCB0008,"RED LODGE 4.7 NNE, MT US",2010-10-17,2021-05-24,45.2575,-109.2263889,1564.2
GHCND:US1MTCB0009,"RED LODGE 2.7 NE, MT US",2010-10-27,2021-10-05,45.22133,-109.21236,1701.1
GHCND:US1MTCB0010,"RED LODGE 5.7 NNE CLOSED, MT US",2011-04-08,2014-09-11,45.267172,-109.19923,1577.3
GHCND:US1MTCB0011,"BRIDGER 6.1 W CLOSED, MT US",2012-05-13,2018-06-04,45.29,-109.04,1389.9
GHCND:US1MTCB0012,"FROMBERG 2.7 NE, MT US",2014-11-26,2026-01-15,45.419618,-108.866794,1072.6
GHCND:US1MTCB0013,"JOLIET 2.2 WNW, MT US",2015-12-01,2026-01-14,45.500382,-109.010708,1264.3
GHCND:US1MTCB0015,"FROMBERG 0.1 S, MT US",2016-07-30,2023-07-04,45.390379,-108.906175,1077.8
GHCND:US1MTCC0001,"GREAT FALLS 2.5 NNW, MT US",2007-07-01,2011-09-14,47.5376,-111.3121,1071.7
GHCND:US1MTCC0004,"GREAT FALLS 2.4 SW, MT US",2009-02-23,2012-02-02,47.48371,-111.33101,1023.2
GHCND:US1MTCC0007,"BELT 2.7 NNW, MT US",2010-06-21,2025-12-27,47.419173,-110.957472,1144.5
GHCND:US1MTCC0008,"NEIHART 0.9 SE, MT US",2011-02-06,2017-12-11,46.9223631,-110.724133,1748
GHCND:US1MTCC0013,"GREAT FALLS 2.4 N, MT US",2013-10-29,2016-10-16,47.54,-111.2943,1075.3
GHCND:US1MTCC0016,"GREAT FALLS 6.2 S, MT US",2020-06-19,2025-11-04,47.4148,-111.2969,1012.9
GHCND:US1MTCC0018,"GREAT FALLS 6.7 S, MT US",2021-08-11,2023-12-07,47.40749,-111.29405,1030.5
GHCND:US1MTCC0020,"GREAT FALLS 1.9 WNW, MT US",2022-11-27,2025-02-04,47.51334,-111.33007,1021.1
GHCND:US1MTCH0001,"BIG SANDY 0.1 SW, MT US",2007-05-05,2008-12-15,48.1777,-110.1144,823
GHCND:US1MTCH0002,"HIGHWOOD 0.1 NNE, MT US",2007-12-14,2014-06-30,47.5851,-110.789,1035.7
GHCND:US1MTCH0005,"FLOWEREE 0.3 SW, MT US",2011-02-02,2016-10-10,47.7268213,-111.033425,985.7
GHCND:US1MTCH0006,"GERALDINE 12.0 E, MT US",2011-12-20,2026-01-16,47.5974478,-110.007517,962.3
GHCND:US1MTCS0001,"MILES CITY 8.7 E CLOSED, MT US",2009-10-26,2017-10-01,46.3913,-105.6575,933
GHCND:US1MTCS0003,"MILES CITY 0.7 SW, MT US",2009-11-01,2023-08-04,46.3995,-105.8491,732.4
GHCND:US1MTCS0004,"MILES CITY 8.5 E CLOSED, MT US",2009-11-01,2010-08-08,46.393791,-105.663334,950.7
GHCND:US1MTCS0006,"ISMAY 27.6 WSW, MT US",2011-02-17,2026-01-13,46.280485,-105.276554,757.1
GHCND:US1MTCS0007,"ISMAY 28.7 SW CLOSED, MT US",2011-03-04,2016-03-01,46.2448,-105.2684,767.2
GHCND:US1MTCS0008,"MILES CITY 0.4 E, MT US",2011-05-23,2019-12-06,46.407363,-105.8302222,719.9
GHCND:US1MTCS0010,"KINSEY 2.3 W, MT US",2011-06-29,2023-12-24,46.570448,-105.70487,721.2
GHCND:US1MTCS0011,"ISMAY 3.4 NE, MT US",2011-11-16,2026-01-15,46.5396,-104.7518,828.4
GHCND:US1MTCS0012,"MILES CITY 1.2 ENE, MT US",2015-04-09,2021-12-24,46.411994,-105.815919,721.2
GHCND:US1MTCS0013,"MILES CITY 0.9 SE, MT US",2019-04-24,2019-11-02,46.39866,-105.82478,723
GHCND:US1MTCT0001,"ALZADA 20.7 NW CLOSED, MT US",2009-10-30,2012-07-18,45.15582,-104.79439,1097.9
GHCND:US1MTCT0003,"RIDGE 3.8 NE, MT US",2011-05-18,2026-01-10,45.091688,-104.976266,1250
GHCND:US1MTCT0004,"EKALAKA 0.8 NNE CLOSED, MT US",2011-05-18,2013-11-14,45.8995,-104.542,1063.1
GHCND:US1MTCT0005,"EKALAKA 9.4 WNW, MT US",2011-05-30,2021-05-27,45.9387,-104.7323,993.3
GHCND:US1MTCT0006,"EKALAKA 0.3 SSW CLOSED, MT US",2011-10-26,2017-07-26,45.8855884,-104.5504655,1052.5
GHCND:US1MTCT0007,"HAMMOND 8.0 NE, MT US",2012-06-14,2018-11-20,45.3142107278109,-104.812474474311,1086
GHCND:US1MTDL0001,"ANACONDA 7.4 NW, MT US",2008-05-07,2026-01-16,46.16611111,-113.0852778,1768.1
GHCND:US1MTDN0001,"FLAXVILLE 5.1 E, MT US",2006-12-03,2014-04-20,48.7931,-105.06131,746.2
GHCND:US1MTDN0002,"SCOBEY 1.2 ENE, MT US",2007-12-21,2017-05-25,48.79706,-105.39563,766
GHCND:US1MTDN0005,"SCOBEY 3.1 ESE, MT US",2024-07-30,2026-01-16,48.7679,-105.3619,760.2
GHCND:US1MTDW0001,"GLENDIVE 0.6 SW, MT US",2007-02-12,2008-01-14,47.1028,-104.7179,630.9
GHCND:US1MTDW0002,"GLENDIVE 16.9 WSW, MT US",2007-04-24,2026-01-15,46.992616,-105.024788,807.1
GHCND:US1MTDW0004,"GLENDIVE 7.7 NNE, MT US",2007-05-31,2012-09-17,47.217238,-104.666591,626.1
GHCND:US1MTDW0006,"GLENDIVE 0.8 NNE, MT US",2008-02-16,2009-10-12,47.11967087,-104.70314789,644
GHCND:US1MTDW0007,"GLENDIVE 2.2 W, MT US",2010-06-17,2026-01-14,47.105261,-104.755056,641.9
GHCND:US1MTFG0003,"BUFFALO 1.7 E, MT US",2010-05-03,2025-12-15,46.82009,-109.793465,1301.8
GHCND:US1MTFG0004,"WINIFRED 6.4 SSW, MT US",2013-05-29,2014-10-17,47.481684,-109.445719,1039.7
GHCND:US1MTFG0005,"COFFEE CREEK 1.7 N, MT US",2017-04-29,2019-10-23,47.373962,-110.085401,1125.3
GHCND:US1MTFG0006,"LEWISTOWN 0.4 SW, MT US",2023-11-26,2026-01-06,47.06011,-109.43438,1225
GHCND:US1MTFH0002,"KALISPELL 10.1 SW, MT US",2007-01-22,2026-01-16,48.091287,-114.464181,992.1
GHCND:US1MTFH0003,"EVERGREEN 14.7 SE, MT US",2000-07-17,2008-03-27,48.1333,-114.0891,929.9
GHCND:US1MTFH0004,"WHITEFISH 0.8 ESE, MT US",2007-04-02,2023-04-05,48.410607,-114.329282,928.1
GHCND:US1MTFH0007,"COLUMBIA FALLS .9 WNW, MT US",2007-09-01,2014-09-19,48.373446,-114.198058,937
GHCND:US1MTFH0010,"EVERGREEN 14.7 SE, MT US",2008-03-24,2009-02-09,48.060988,-114.072747,892.5
GHCND:US1MTFH0011,"WHITEFISH 2.2 NE, MT US",2008-05-04,2025-10-13,48.44121,-114.315141,1094.2
GHCND:US1MTFH0012,"MARION 1.1 SE, MT US",2008-04-29,2026-01-16,48.0955,-114.6429,1236
GHCND:US1MTFH0013,"KALISPELL 1.7 NW, MT US",2008-06-08,2026-01-02,48.218,-114.3398,920.5
GHCND:US1MTFH0014,"KALISPELL 5.9 SW, MT US",2008-07-19,2009-09-20,48.1511,-114.4233,980.8
GHCND:US1MTFH0015,"LAKESIDE 0.6 SE, MT US",2008-12-13,2009-11-19,48.01186,-114.21711,933
GHCND:US1MTFH0016,"BIGFORK 3.2 ENE, MT US",2009-02-10,2026-01-16,48.07438,-114.012017,929.6
GHCND:US1MTFH0017,"COLUMBIA FALLS 7.7 S, MT US",2009-11-05,2026-01-16,48.2619,-114.155617,932.1
GHCND:US1MTFH0022,"KALISPELL 0.8 SSW, MT US",2011-07-11,2012-03-31,48.189103,-114.326341,897.9
GHCND:US1MTFH0024,"ESSEX 7.9 W, MT US",2013-06-12,2015-09-21,48.26636,-113.44258,1347.5
GHCND:US1MTFH0026,"BIGFORK 3.0 N, MT US",2014-11-09,2018-11-09,48.107675,-114.064321,934.5
GHCND:US1MTFH0027,"EVERGREEN 13.7 SE, MT US",2015-07-21,2018-05-05,48.075372,-114.082209,949.1
GHCND:US1MTFH0029,"KALISPELL 2.6 NE, MT US",2016-09-19,2026-01-16,48.22069,-114.27115,890.9
GHCND:US1MTFH0030,"KALISPELL 2.5 WNW, MT US",2017-02-13,2026-01-16,48.210827,-114.367471,923.5
GHCND:US1MTFH0032,"WHITEFISH 2.9 ESE, MT US",2020-01-01,2021-10-03,48.395,-114.2903,935.1
GHCND:US1MTFH0034,"KALISPELL 11.1 E, MT US",2020-11-26,2023-10-02,48.21402,-114.076478,978.4
GHCND:US1MTFH0038,"KALISPELL 6.8 WSW, MT US",2024-01-01,2026-01-16,48.173979,-114.458199,1011
GHCND:US1MTFL0002,"BAKER 18.7 NNW, MT US",2007-05-01,2014-06-20,46.613802,-104.418843,757.1
GHCND:US1MTFL0003,"BAKER 24.7 SSE, MT US",2007-05-03,2026-01-16,46.030911,-104.083796,954.3
GHCND:US1MTFL0005,"BAKER 0.2 SSW, MT US",2008-06-18,2025-11-19,46.3602392,-104.2757558,812
GHCND:US1MTFL0007,"PLEVNA 1.6 S, MT US",2010-05-07,2026-01-15,46.39305556,-104.5197222,848.3
GHCND:US1MTGF0001,"COHAGEN 23.5 WSW CLOSED, MT US",2012-08-26,2014-10-22,46.995,-107.109,947
GHCND:US1MTGN0003,"BOZEMAN 3.6 S, MT US",2007-06-07,2008-06-30,45.62533,-111.0534,1553.9
GHCND:US1MTGN0008,"BOZEMAN 4.4 S, MT US",2010-05-25,2016-02-10,45.61383,-111.056571,1577.9
GHCND:US1MTGN0009,"BOZEMAN 7.3 W, MT US",2010-06-16,2010-11-10,45.6847,-111.1925,1426.8
GHCND:US1MTGN0011,"BOZEMAN 1.5 SSE, MT US",2013-10-08,2026-01-16,45.6578,-111.0272,1505.1
GHCND:US1MTGN0012,"BOZEMAN 4.4 SSE, MT US",2016-09-05,2026-01-10,45.62113,-110.99878,1642
GHCND:US1MTGN0016,"BOZEMAN 7.4 WSW, MT US",2017-11-29,2020-03-09,45.6519,-111.1924,1452.1
GHCND:US1MTGN0018,"BELGRADE 1.0 NNW, MT US",2019-09-03,2020-11-03,45.791262,-111.183658,1348.1
GHCND:US1MTGN0021,"BIG SKY 1.7 NW, MT US",2022-09-02,2026-01-15,45.271889,-111.339884,2076.9
GHCND:US1MTGN0024,"WEST YELLOWSTONE 0.4 NNE, MT US",2023-06-25,2025-10-26,44.66935,-111.104073,2036.4
GHCND:US1MTGN0025,"BOZEMAN 1.5 WNW, MT US",2024-03-23,2025-02-11,45.6861606,-111.070752,1460.6
GHCND:US1MTGR0001,"BROWNING 12.4 NNE, MT US",2007-09-23,2012-10-11,48.713493,-112.880928,1304.8
GHCND:US1MTGR0004,"CUT BANK 0.2 E, MT US",2011-04-22,2015-04-09,48.6354,-112.3249,1150
GHCND:US1MTGR0006,"CUT BANK 0.3 NNW, MT US",2014-10-15,2026-01-15,48.638756,-112.331396,1143.3
GHCND:US1MTGT0003,"PHILIPSBURG 10.3 SSW, MT US",2007-12-06,2026-01-13,46.2049,-113.406,1661.2
GHCND:US1MTGT0004,"DRUMMOND 1.3 NNE, MT US",2010-09-09,2011-10-10,46.68361111,-113.1338889,1309.1
GHCND:US1MTGV0001,"LAVINA 5.0 W CLOSED, MT US",2007-05-14,2013-09-09,46.28937,-109.042759,1079.9
GHCND:US1MTGV0002,"RYEGATE 0.3 E, MT US",2010-04-09,2024-08-31,46.298986,-109.247105,1112.2
GHCND:US1MTGV0003,"RYEGATE 9.8 SSW CLOSED, MT US",2010-09-13,2018-08-21,46.178481,-109.363191,1318.9
GHCND:US1MTGV0004,"RYEGATE 5.0 S, MT US",2010-10-20,2019-08-12,46.225788,-109.257652,1212.8
GHCND:US1MTGV0005,"LAVINA 5.8 SSE CLOSED, MT US",2010-10-29,2013-11-04,46.2171,-108.8997,1087.5
GHCND:US1MTGV0007,"LAVINA 20.2 NNW, MT US",2014-10-29,2020-05-20,46.575571,-109.06443,1268.6
GHCND:US1MTGV0008,"JUDITH GAP 20.0 E, MT US",2015-11-23,2021-02-15,46.641699,-109.3367547,1579.5
GHCND:US1MTHL0001,"RUDYARD 0.3 NW, MT US",2011-04-17,2025-12-31,48.56291667,-110.5595722,952.5
GHCND:US1MTHL0003,"INVERNESS 0.2 SSW, MT US",2022-06-12,2025-10-30,48.555,-110.6923,1012.2
GHCND:US1MTHL0006,"GILDFORD 3.6 NNW, MT US",2020-07-11,2024-12-27,48.6137,-110.3391,864.4
GHCND:US1MTJF0001,"BOULDER 0.3 E, MT US",2008-09-06,2026-01-15,46.235792,-112.114103,1494.7
GHCND:US1MTJF0002,"CLANCY 4.8 NE, MT US",2010-07-23,2021-03-20,46.515329,-111.916965,1432
GHCND:US1MTJF0003,"MONTANA CITY 2.3 SE, MT US",2011-03-10,2016-10-31,46.51688,-111.894593,1445.4
GHCND:US1MTLC0004,"HELENA 10.6 N, MT US",2007-08-23,2026-01-16,46.745942,-112.03145,1242.4
GHCND:US1MTLC0005,"HELENA 1.5 WSW, MT US",2008-05-29,2018-06-22,46.584851,-112.046598,1296
GHCND:US1MTLC0006,"HELENA 4.3 ENE, MT US",2008-05-01,2012-01-20,46.619727,-111.935977,1154
GHCND:US1MTLC0011,"HELENA 9.3 NNE, MT US",2012-05-22,2025-10-12,46.7258,-111.9633,1171.7
GHCND:US1MTLC0012,"HELENA 2.5 NNW, MT US",2012-07-13,2013-06-14,46.628358,-112.043658,1164.6
GHCND:US1MTLC0014,"HELENA 2.0 NNW, MT US",2013-06-15,2026-01-16,46.62177,-112.04198,1179.9
GHCND:US1MTLC0018,"LINCOLN 0.2 SE, MT US",2018-05-14,2025-10-11,46.952786,-112.678886,1387.4
GHCND:US1MTLC0019,"HELENA 5.8 NE, MT US",2019-05-18,2026-01-14,46.643284,-111.91937,1136
GHCND:US1MTLK0003,"POLSON .5 E, MT US",2007-05-11,2013-06-10,47.69236,-114.15145,888.8
GHCND:US1MTLK0005,"CHARLO 4.9 S, MT US",2007-04-22,2018-10-06,47.371158,-114.16175,828.4
GHCND:US1MTLK0006,"ARLEE, MT US",2007-08-09,2009-11-11,47.16192,-114.08504,946.1
GHCND:US1MTLK0008,"BIGFORK 2.6 SSE, MT US",2008-06-04,2024-09-05,48.0231,-114.068959,950.4
GHCND:US1MTLK0010,"RONAN 4.1 NE, MT US",2010-06-06,2026-01-16,47.57335698,-114.04362759,1040
GHCND:US1MTLK0011,"ROLLINS 0.5 WSW, MT US",2010-05-30,2019-12-12,47.90258333,-114.2078,895.5
GHCND:US1MTLK0013,"RONAN 0.2 WSW, MT US",2014-08-14,2026-01-15,47.5275474786758,-114.10478644073,930.6
GHCND:US1MTLK0014,"SWAN LAKE 12.3 S, MT US",2014-09-15,2015-07-14,47.7505,-113.8242,993.3
GHCND:US1MTLK0015,"BIGFORK 3.5 ESE, MT US",2018-05-10,2026-01-16,48.051086,-114.002952,933
GHCND:US1MTLK0016,"ARLEE 0.6 SSE, MT US",2020-05-20,2021-01-11,47.161451,-114.086069,944.3
GHCND:US1MTLK0017,"POLSON 1.0 SSE, MT US",2021-03-09,2025-12-27,47.6763777,-114.1487251,1027.2
GHCND:US1MTLN0001,"EUREKA 4.3 NW, MT US",2007-02-09,2012-12-04,48.918046,-115.117609,796.1
GHCND:US1MTLN0002,"TROY 1.0 NNW, MT US",2007-12-15,2015-07-27,48.473233,-115.897333,584
GHCND:US1MTLN0003,"EUREKA 7.8 ESE, MT US",2009-09-11,2011-08-06,48.815015,-114.902818,903.4
GHCND:US1MTLN0006,"YAAK 0.3 W, MT US",2016-04-16,2026-01-15,48.8319,-115.7145,915.9
GHCND:US1MTLN0009,"TROY 0.3 WSW, MT US",2023-05-28,2026-01-16,48.45874,-115.895506,584.9
GHCND:US1MTLY0001,"CHESTER 0.4 W, MT US",2011-11-13,2013-11-19,48.5104916,-110.9741954,960.7
GHCND:US1MTLY0002,"CHESTER 0.3 ESE, MT US",2021-05-18,2025-11-07,48.5094,-110.9605,955.2
GHCND:US1MTLY0003,"CHESTER 6.7 S, MT US",2002-02-02,2025-12-03,48.4144,-110.9705,915.9
GHCND:US1MTLY0004,"CHESTER 10.5 S, MT US",2021-09-04,2026-01-01,48.36196,-110.9261,910.4
GHCND:US1MTLY0005,"WHITLASH 3.7 SSE, MT US",2021-09-03,2026-01-16,48.8608,-111.2144,1351.2
GHCND:US1MTLY0006,"TIBER DAM 11.9 SE, MT US",2021-09-05,2026-01-14,48.2024,-110.911,940.3
GHCND:US1MTLY0007,"TIBER DAM 5.6 WSW, MT US",2021-01-30,2022-09-02,48.3,-111.2154,926.3
GHCND:US1MTLY0008,"WHITLASH 8.0 S, MT US",2021-09-01,2026-01-07,48.7932,-111.2417,1221.9
GHCND:US1MTLY0009,"CHESTER 13.8 NNW, MT US",2021-09-08,2026-01-16,48.7057,-111.0332,1028.4
GHCND:US1MTLY0010,"CHESTER 15.6 N, MT US",2021-09-01,2026-01-15,48.73575,-110.92677,1068.3
GHCND:US1MTLY0013,"TIBER 6.5 NW, MT US",2021-04-17,2026-01-15,48.5819,-111.1741,1030.2
GHCND:US1MTLY0014,"CHESTER 0.4 WSW, MT US",2021-10-01,2026-01-10,48.5089,-110.9736,960.7
GHCND:US1MTLY0015,"JOPLIN 17.5 N, MT US",2021-10-01,2026-01-13,48.8139,-110.7735,1001.6
GHCND:US1MTLY0016,"LOTHAIR 3.3 SE, MT US",2021-04-28,2026-01-15,48.4391,-111.1776,988.5
GHCND:US1MTLY0017,"WHITLASH 13.2 ENE, MT US",2021-10-01,2026-01-15,48.9867,-110.9885,1056.4
GHCND:US1MTLY0018,"WHITLASH 5.6 NE, MT US",2021-01-11,2026-01-15,48.9629,-111.1629,1192.1
GHCND:US1MTLY0019,"WHITLASH 13.5 E, MT US",2021-10-01,2026-01-15,48.9127,-110.9569,1068.3
GHCND:US1MTLY0020,"JOPLIN 3.6 S, MT US",2020-11-01,2026-01-14,48.509,-110.7807,1024.7
GHCND:US1MTLY0021,"JOPLIN 11.0 N, MT US",2021-10-01,2026-01-11,48.7122,-110.7731,990
GHCND:US1MTLY0022,"CHESTER 22.8 N, MT US",2022-06-01,2026-01-15,48.8356,-110.873,1039.1
GHCND:US1MTLY0024,"TIBER DAM 3.3 SE, MT US",2022-03-30,2026-01-15,48.2862,-111.0505,860.5
GHCND:US1MTLY0025,"TIBER DAM 11.2 ESE, MT US",2022-03-30,2026-01-16,48.2546,-110.8768,840
GHCND:US1MTLY0026,"TIBER DAM 2.0 NNW, MT US",2022-04-26,2025-10-09,48.3487,-111.1174,979.3
GHCND:US1MTLY0027,"CHESTER 20.0 NNW, MT US",2022-05-27,2025-12-31,48.792,-111.067,1163.4
GHCND:US1MTLY0028,"TIBER DAM 7.6 S, MT US",2022-09-01,2025-12-31,48.2143,-111.1292,958.3
GHCND:US1MTMC0004,"WOLF POINT 27.1 SSW, MT US",2020-06-28,2025-11-08,47.73375,-105.87654,711.7
GHCND:US1MTMC0005,"VIDA 0.3 W, MT US",2021-05-21,2026-01-16,47.8328063,-105.4877512,730.6
GHCND:US1MTMD0001,"SHERIDAN 2.5 NE, MT US",2008-05-20,2014-10-12,45.481199,-112.152572,1755.6
GHCND:US1MTMD0002,"SHERIDAN 2.3 N, MT US",2008-06-19,2009-02-27,45.49,-112.2,1610.6
GHCND:US1MTMD0003,"SHERIDAN 1.4 ENE, MT US",2013-05-01,2026-01-16,45.46219722,-112.162525,1645.6
GHCND:US1MTMD0007,"HARRISON 1.0 ENE, MT US",2019-05-29,2025-10-20,45.7093,-111.7666,1488.9
GHCND:US1MTMD0008,"ENNIS 1.1 ENE, MT US",2020-07-14,2023-08-26,45.3494,-111.7071,1503.9
GHCND:US1MTMD0009,"VIRGINIA CITY 0.5 SSW, MT US",2020-07-01,2022-08-26,45.2923579,-111.9384412,1808.1
GHCND:US1MTMD0010,"CAMERON 8.1 SE, MT US",2020-07-23,2023-10-23,45.10681,-111.582867,1797.4
GHCND:US1MTMD0011,"ENNIS 0.3 SSE, MT US",2021-05-17,2026-01-16,45.3405563,-111.7272821,1510.6
GHCND:US1MTMD0012,"NORRIS 2.4 ENE, MT US",2022-04-22,2024-06-27,45.58482,-111.645986,1462.1
GHCND:US1MTMD0013,"WEST YELLOWSTONE 25.2 NW, MT US",2022-05-01,2025-11-17,44.87131,-111.5288,1973.3
GHCND:US1MTMH0003,"ROUNDUP 10.9 NNE CLOSED, MT US",2007-06-01,2016-10-04,46.58629,-108.427375,1047
GHCND:US1MTMH0004,"ROUNDUP 6.2 ENE, MT US",2007-10-25,2026-01-16,46.477905,-108.416553,959.5
GHCND:US1MTMH0005,"LAVINA 9.5 ESE CLOSED, MT US",2007-11-20,2013-01-12,46.24168,-108.75661,1140
GHCND:US1MTMH0006,"KLEIN 0.6 S CLOSED, MT US",2008-11-25,2021-08-12,46.395833,-108.548889,1010.4
GHCND:US1MTMH0007,"ROUNDUP 4.3 SSE, MT US",2009-10-13,2025-10-16,46.387888,-108.520552,1056.4
GHCND:US1MTMH0010,"ROUNDUP 8.1 SE, MT US",2009-10-22,2025-12-26,46.3514,-108.443,1188.7
GHCND:US1MTMH0011,"ROUNDUP 8.8 S CLOSED, MT US",2010-07-23,2012-07-19,46.321047,-108.521017,1191.2
GHCND:US1MTMH0012,"ROUNDUP 8.5 NNE, MT US",2010-10-01,2026-01-07,46.5618,-108.467,1090
GHCND:US1MTMH0013,"MELSTONE 0.1 NNE, MT US",2010-10-17,2019-10-02,46.599157,-107.867219,894
GHCND:US1MTMH0014,"LAVINA 10.6 E, MT US",2010-10-20,2022-01-28,46.29722222,-108.7172222,1070.8
GHCND:US1MTMH0015,"ROUNDUP 0.5 SW CLOSED, MT US",2011-06-12,2016-06-08,46.443192,-108.546109,987.9
GHCND:US1MTMH0016,"ROUNDUP 2.8 ESE, MT US",2011-11-01,2021-11-03,46.42725,-108.4892333,1081.1
GHCND:US1MTMH0017,"ROUNDUP 7.4 SSE, MT US",2013-01-07,2026-01-16,46.3499450683594,-108.479972839355,1072.3
GHCND:US1MTMH0018,"ROUNDUP 1.8 NNE, MT US",2013-01-27,2026-01-15,46.4713527777778,-108.520797222222,1011.6
GHCND:US1MTMH0019,"ROUNDUP 3.3 SE, MT US",2013-10-15,2025-07-22,46.415693,-108.488483,1095.5
GHCND:US1MTMH0020,"ROUNDUP 3.0 NNE, MT US",2014-07-08,2026-01-02,46.487686,-108.513479,993.6
GHCND:US1MTMH0021,"ROUNDUP 7.2 SE CLOSED, MT US",2014-08-25,2020-11-01,46.37657,-108.428528,1102.5
GHCND:US1MTMH0022,"ROUNDUP 7.3 SE, MT US",2018-06-16,2025-11-16,46.360565,-108.453815,1163.1
GHCND:US1MTMH0023,"ROUNDUP 0.6 NW, MT US",2020-11-02,2026-01-16,46.453066,-108.548267,997.3
GHCND:US1MTMH0024,"ROUNDUP 13.9 S, MT US",2024-03-24,2025-12-13,46.24933,-108.49533,1225.3
GHCND:US1MTMS0001,"EVARO 2.7 NNE, MT US",2007-01-02,2015-03-15,47.072361,-114.079778,1303
GHCND:US1MTMS0004,"CLINTON 5.0 WNW, MT US",2007-03-09,2007-06-23,46.8133,-113.78333,1074.1
GHCND:US1MTMS0006,"MISSOULA 3.0 SSW, MT US",2007-03-10,2008-11-14,46.864,-113.9733,976.9
GHCND:US1MTMS0007,"MISSOULA 5.9 SW, MT US",2007-03-10,2009-10-03,46.815415,-114.104391,1088.7
GHCND:US1MTMS0009,"EVARO .74 NNW, MT US",2001-09-30,2022-08-21,47.0421,-114.0968,1293
GHCND:US1MTMS0010,"MISSOULA 2.7 S, MT US",2007-03-16,2013-01-27,46.829852,-114.003539,1071.1
GHCND:US1MTMS0011,"MISSOULA 2.8 NE, MT US",2007-03-16,2012-05-22,46.894562,-113.96221,1040.9
GHCND:US1MTMS0012,"MISSOULA 4.9 N, MT US",2007-03-26,2026-01-15,46.939187,-114.019368,1082
GHCND:US1MTMS0013,"MISSOULA 13.0 NNW, MT US",2007-04-01,2020-06-02,47.041667,-114.116667,1360.9
GHCND:US1MTMS0014,"MISSOULA 4.4 W, MT US",2007-05-13,2026-01-16,46.858614,-114.099702,949.1
GHCND:US1MTMS0016,"SEELEY LAKE 0.3 ESE, MT US",2007-11-18,2023-10-13,47.1784,-113.478,1239.9
GHCND:US1MTMS0017,"GREENOUGH 2.0 NNE, MT US",1998-06-17,2019-05-10,46.946066,-113.429641,1127.8
GHCND:US1MTMS0018,"SEELEY LAKE 2.3 ESE, MT US",2008-06-30,2023-12-01,47.1753,-113.43705,1270.1
GHCND:US1MTMS0019,"MISSOULA 5.0 E, MT US",2010-01-09,2016-01-22,46.882189,-113.904431,996.7
GHCND:US1MTMS0020,"BONNER 0.0 SW, MT US",2012-12-23,2017-03-29,46.872975,-113.86383,1163.7
GHCND:US1MTMS0022,"BONNER WEST RIVERSIDE 9.4 SE, MT US",2015-04-30,2022-08-27,46.7888,-113.737,1045.8
GHCND:US1MTMS0023,"BONNER WEST RIVERSIDE 4.0 SE, MT US",2016-01-16,2026-01-15,46.8371,-113.8279,1014.1
GHCND:US1MTMS0024,"MISSOULA 1.6 SE, MT US",2016-09-13,2017-05-18,46.850342,-113.988276,979.9
GHCND:US1MTMS0026,"SEELEY LAKE 1.2 E, MT US",2017-03-28,2026-01-16,47.177859,-113.459935,1280.2
GHCND:US1MTMS0027,"CONDON 2.4 SE, MT US",1998-06-21,2023-02-01,47.4988039,-113.6800436,1180.5
GHCND:US1MTMS0030,"MISSOULA 2.7 W, MT US",2019-09-27,2021-08-31,46.868158,-114.06674,955.5
GHCND:US1MTMS0032,"MISSOULA 1.3 WNW, MT US",2020-04-15,2026-01-08,46.874746,-114.033982,962.6
GHCND:US1MTMS0033,"MISSOULA 3.8 SSW, MT US",2021-09-20,2026-01-15,46.81467,-114.02631,1106.4
GHCND:US1MTMS0034,"CLINTON 11.1 SSE, MT US",2023-06-11,2026-01-16,46.610273,-113.652354,1171.3
GHCND:US1MTMS0036,"MISSOULA 2.9 E, MT US",2024-05-27,2026-01-15,46.86491,-113.9464,983
GHCND:US1MTPH0001,"ZORTMAN 10.0 SSW, MT US",2008-05-13,2025-11-09,47.776272,-108.558411,923.5
GHCND:US1MTPH0002,"SACO 0.2 NW, MT US",2008-10-20,2011-10-04,48.458798,-107.344022,665.1
GHCND:US1MTPK0001,"LIVINGSTON 2.3 SSW, MT US",2007-02-02,2022-12-30,45.63011,-110.579768,1381.4
GHCND:US1MTPK0002,"LIVINGSTON 14.0 S, MT US",2007-02-25,2019-04-10,45.4608,-110.595,1465.5
GHCND:US1MTPK0004,"LIVINGSTON 0.4 SSW, MT US",2007-05-07,2018-09-30,45.658102,-110.565721,1377.1
GHCND:US1MTPK0005,"WILSALL 0.3 NW, MT US",2007-05-16,2026-01-16,45.997345,-110.662224,1554.5
GHCND:US1MTPK0007,"LIVINGSTON 6.6 ESE, MT US",2007-10-23,2026-01-16,45.635694,-110.433056,1677.9
GHCND:US1MTPK0009,"PRAY 1.7 NW CLOSED, MT US",2009-06-14,2015-09-28,45.4022,-110.7002,1477.1
GHCND:US1MTPK0010,"MCLEOD 12.8 SW CLOSED, MT US",2009-11-04,2018-09-03,45.494323,-110.224961,1597.2
GHCND:US1MTPK0012,"LIVINGSTON 20.8 SSW, MT US",2011-07-17,2019-10-23,45.37,-110.66,1553.9
GHCND:US1MTPK0013,"EMIGRANT 9.2 SW CLOSED, MT US",2011-12-10,2014-10-12,45.265803,-110.849876,1537.7
GHCND:US1MTPK0014,"LIVINGSTON 0.9 WSW, MT US",2012-01-23,2026-01-16,45.658,-110.5817,1403.6
GHCND:US1MTPK0017,"PRAY 4.4 SSW, MT US",2016-02-01,2019-12-04,45.318671,-110.709775,1673
GHCND:US1MTPK0018,"GARDINER 0.7 NW, MT US",2022-04-12,2023-05-09,45.037517,-110.717059,1618.8
GHCND:US1MTPR0001,"BROADUS 18.8 NNW, MT US",2007-05-21,2026-01-16,45.66932,-105.62355,1061.9
GHCND:US1MTPR0002,"VOLBORG 18 SW, MT US",2008-01-01,2023-12-10,45.667811,-105.899022,1087.2
GHCND:US1MTPR0003,"ASHLAND 11.9 E, MT US",2007-06-07,2024-06-01,45.60923,-106.068111,1048.5
GHCND:US1MTPR0004,"BROADUS 12.6 SW, MT US",2009-05-31,2022-02-06,45.296422,-105.561994,986.9
GHCND:US1MTPR0005,"BOYES 1.7 NNE, MT US",2009-10-30,2026-01-13,45.290982,-105.021266,1051
GHCND:US1MTPR0006,"ASHLAND 9.7 ESE, MT US",2009-10-01,2026-01-16,45.587,-106.121167,972.9
GHCND:US1MTPR0007,"BROADUS 12.3 SSE, MT US",2009-11-07,2026-01-04,45.273117,-105.32805,956.8
GHCND:US1MTPR0009,"BROADUS 9.8 W, MT US",2011-03-06,2022-07-25,45.44,-105.61,1069.8
GHCND:US1MTPR0011,"BROADUS 17.7 NNW, MT US",2012-02-29,2020-03-24,45.677441,-105.555345,1013.2
GHCND:US1MTPR0012,"BROADUS 3.6 ENE CLOSED, MT US",2012-05-09,2015-02-07,45.45693,-105.335965,921.1
GHCND:US1MTPR0014,"VOLBORG 15.1 SSW, MT US",1998-06-17,2026-01-15,45.6333,-105.766,996.4
GHCND:US1MTPR0016,"VOLBORG 17.7 SW, MT US",2000-07-03,2026-01-15,45.6561381,-105.9339524,1127.5
GHCND:US1MTPR0018,"ASHLAND 25.0 SSE, MT US",2022-04-12,2024-07-07,45.281474,-106.147315,1007.7
GHCND:US1MTPT0001,"WINNETT 3.3 E, MT US",2010-06-16,2010-12-20,47.004862,-108.276941,896.7
GHCND:US1MTPT0002,"WINNETT 21.6 SSW, MT US",2014-06-27,2025-10-15,46.7408126592636,-108.591584265232,1162.5
GHCND:US1MTPW0002,"DEER LODGE 0.9 NNE, MT US",2007-12-08,2010-06-16,46.4095,-112.7245,1385
GHCND:US1MTPW0003,"OVANDO 2.9 SW, MT US",2008-08-09,2026-01-10,46.99372,-113.17423,1236.6
GHCND:US1MTRB0001,"COLSTRIP 0.6 NE CLOSED, MT US",1998-06-17,2018-04-09,45.90202,-106.625708,989.1
GHCND:US1MTRB0002,"LAME DEER 3.0 E CLOSED, MT US",2008-03-31,2013-02-26,45.6344299316406,-106.615440368652,1019.6
GHCND:US1MTRB0003,"FORSYTH 0.6 WSW CLOSED, MT US",2008-06-18,2012-04-29,46.263848,-106.689619,767.8
GHCND:US1MTRB0006,"FORSYTH 1.5 ENE CLOSED, MT US",2010-03-10,2015-06-22,46.272819,-106.647085,786.7
GHCND:US1MTRB0007,"LAME DEER 1.9 E CLOSED, MT US",2010-09-13,2013-05-25,45.3402,-106.3713,1103.4
GHCND:US1MTRB0008,"MELSTONE 6.3 SE CLOSED, MT US",2010-10-16,2018-04-09,46.544606,-107.762747,963.2
GHCND:US1MTRB0009,"MELSTONE 5.7 E, MT US",2010-10-15,2026-01-16,46.58939,-107.7488,992.7
GHCND:US1MTRB0014,"FORSYTH 1.2 ENE, MT US",2018-06-17,2021-10-26,46.270415,-106.653095,780.6
GHCND:US1MTRC0001,"SAVAGE 1.0 S, MT US",2007-04-01,2026-01-15,47.445,-104.3454,604.7
GHCND:US1MTRC0002,"SIDNEY 3.5 NNE, MT US",2007-05-31,2012-09-08,47.757466,-104.12715,584
GHCND:US1MTRC0003,"CULBERTSON 13.4 SSE, MT US",2011-05-08,2012-05-11,47.98,-104.37,717.2
GHCND:US1MTRT0002,"FROID 0.1N, MT US",2007-05-31,2025-12-09,48.337585,-104.494126,617.5
GHCND:US1MTRT0003,"BROCKTON 11.6 N, MT US",2008-05-25,2026-01-16,48.316878,-104.910549,645.9
GHCND:US1MTRT0005,"POPLAR 20.4 N, MT US",1998-06-17,2026-01-16,48.403702,-105.150028,674.8
GHCND:US1MTRV0001,"HAMILTON 8.8 SSW, MT US",2007-03-10,2009-12-15,46.1244,-114.2172,1247.9
GHCND:US1MTRV0005,"FLORENCE 3.7 SE, MT US",2007-03-26,2026-01-15,46.60683,-114.0124,1085.1
GHCND:US1MTRV0006,"HAMILTON 2.0 SE, MT US",2007-05-01,2008-12-13,46.23509,-114.127851,1129
GHCND:US1MTRV0007,"CORVALLIS 4.2 ENE, MT US",2007-05-21,2021-03-03,46.320898,-114.025166,1305.2
GHCND:US1MTRV0008,"HAMILTON 1.2 SSE, MT US",2009-08-02,2015-12-08,46.23479,-114.15626,1093.6
GHCND:US1MTRV0009,"STEVENSVILLE 5.7 SSE, MT US",2010-06-10,2024-11-18,46.427776,-114.058279,1075.9
GHCND:US1MTRV0010,"VICTOR 3.9 N, MT US",2013-12-01,2023-12-15,46.4723747,-114.1463235,1051.6
GHCND:US1MTRV0015,"VICTOR 5.4 SE, MT US",2018-07-01,2026-01-13,46.376798,-114.055246,1120.1
GHCND:US1MTRV0016,"HAMILTON 3.7 SE, MT US",2019-08-01,2026-01-16,46.216,-114.1039,1194.2
GHCND:US1MTRV0017,"FLORENCE 1.8 ESE, MT US",2021-08-20,2024-09-18,46.62845,-114.041496,1001.3
GHCND:US1MTRV0018,"HAMILTON 9.2 SSW, MT US",2022-08-01,2026-01-16,46.12578,-114.22318,1283.8
GHCND:US1MTSG0001,"BIG TIMBER 0.3 ESE, MT US",2008-10-26,2022-01-17,45.832963,-109.944964,1249.1
GHCND:US1MTSG0002,"BIG TIMBER 6.5 SE CLOSED, MT US",2008-11-08,2011-07-04,45.764326,-109.858504,1240.2
GHCND:US1MTSG0003,"BIG TIMBER 8.2 SSE, MT US",2008-11-20,2021-01-30,45.719116,-109.90895,1331.1
GHCND:US1MTSG0004,"BIG TIMBER 9.8 NNW CLOSED, MT US",2008-11-30,2012-07-01,45.972343,-110.000239,1437.7
GHCND:US1MTSG0005,"REED POINT 8.6 WSW CLOSED, MT US",2009-11-21,2016-05-16,45.6907,-109.7172633,1247.2
GHCND:US1MTSG0006,"BIG TIMBER 4.1 ESE, MT US",2009-11-17,2020-10-18,45.810253,-109.873597,1740.4
GHCND:US1MTSG0007,"BIG TIMBER 0.5 E CLOSED, MT US",2010-06-03,2016-12-13,45.8340792,-109.9409942,1244.8
GHCND:US1MTSG0008,"MELVILLE 0.3 W CLOSED, MT US",2011-11-19,2017-03-09,46.104078,-109.9568865,1532.8
GHCND:US1MTSG0009,"MELVILLE 10.1 ENE, MT US",2012-01-19,2026-01-02,46.1720789,-109.768704,1415.2
GHCND:US1MTSG0010,"BIG TIMBER 11.3 NNE, MT US",2020-05-12,2025-10-13,45.9945,-109.9022,1381
GHCND:US1MTSH0001,"PLENTYWOOD 4.6 SE, MT US",2007-04-14,2009-10-27,48.73188,-104.477263,611.7
GHCND:US1MTSH0002,"PLENTYWOOD 5.3 WNW, MT US",2007-05-01,2025-10-17,48.795542,-104.665672,623
GHCND:US1MTSH0003,"OUTLOOK 5.6 WNW, MT US",2007-04-14,2026-01-15,48.9135,-104.8999,696.2
GHCND:US1MTSH0004,"PLENTYWOOD 2.1 SE, MT US",2007-05-01,2025-07-11,48.752135,-104.523915,609.9
GHCND:US1MTSH0005,"PLENTYWOOD 0.6 W, MT US",2007-10-06,2026-01-16,48.774815,-104.566993,623
GHCND:US1MTSH0008,"PLENTYWOOD 11.7 S, MT US",2011-04-30,2025-10-17,48.607008,-104.596845,661.7
GHCND:US1MTSH0009,"PLENTYWOOD 4.5 NE, MT US",2010-09-06,2025-10-17,48.8248,-104.4942333,680.6
GHCND:US1MTSN0001,"ARLEE 16.7 WNW, MT US",2007-01-14,2026-01-05,47.295276,-114.39287,896.1
GHCND:US1MTSN0002,"NOXON 4.2 WNW, MT US",2007-01-13,2026-01-16,48.033017,-115.849973,705
GHCND:US1MTSN0003,"NOXON 9.1 NNW, MT US",2007-04-17,2016-04-24,48.1139,-115.8446,702.9
GHCND:US1MTSN0004,"THOMPSON FALLS 9.3 NW, MT US",2007-12-01,2026-01-16,47.69389,-115.47674,791
GHCND:US1MTSN0005,"PLAINS 5.2 N, MT US",2017-11-01,2026-01-15,47.536,-114.8893,882.1
GHCND:US1MTSN0006,"TROUT CREEK 4.0 NNW, MT US",2010-01-01,2026-01-16,47.88873,-115.6391,782.1
GHCND:US1MTSW0001,"REED POINT 5 SE, MT US",2007-04-23,2026-01-03,45.669719,-109.472396,1166.2
GHCND:US1MTSW0002,"COLUMBUS 7.2 E, MT US",2007-10-16,2026-01-16,45.6208,-109.104,1242.1
GHCND:US1MTSW0003,"ABSAROKEE 0.6 S, MT US",2007-11-13,2020-10-22,45.5155,-109.445,1238.7
GHCND:US1MTSW0005,"PARK CITY 0.5 S, MT US",2008-10-18,2025-12-28,45.62703,-108.91927,1036.9
GHCND:US1MTSW0006,"ABSAROKEE 0.1 ENE CLOSED, MT US",2008-11-18,2014-12-31,45.525591,-109.442207,1224.7
GHCND:US1MTSW0007,"COLUMBUS 3.2 WSW CLOSED, MT US",2008-11-13,2016-11-16,45.620232,-109.311379,1157.6
GHCND:US1MTSW0009,"COLUMBUS 5.3 NNW CLOSED, MT US",2009-10-28,2014-06-01,45.707014,-109.294026,1191.5
GHCND:US1MTSW0010,"COLUMBUS 8.2 ESE, MT US",2010-08-19,2026-01-15,45.600136,-109.089853,1094.8
GHCND:US1MTSW0011,"COLUMBUS 6.0 E, MT US",2013-05-29,2022-10-24,45.642685,-109.127433,1208.8
GHCND:US1MTSW0012,"PARK CITY 6.0 WSW, MT US",2014-05-23,2026-01-15,45.603569,-109.03386,1052.5
GHCND:US1MTSW0013,"COLUMBUS 6.0 SSE, MT US",2015-05-01,2026-01-15,45.55321,-109.21877,1396
GHCND:US1MTSW0015,"ABSAROKEE 3.0 SW, MT US",2023-04-23,2024-09-12,45.49215,-109.48506,1354.8
GHCND:US1MTTL0002,"SHELBY 0.5 SSW, MT US",2009-08-14,2012-03-17,48.502198,-111.861104,1043.9
GHCND:US1MTTL0004,"SUNBURST 3.4 SE, MT US",2023-06-30,2026-01-15,48.841,-111.8556,1070.5
GHCND:US1MTTN0003,"DUTTON 3.3 ENE, MT US",2007-07-18,2026-01-16,47.8616,-111.64551,1078.1
GHCND:US1MTTN0004,"DUTTON 7.4 NW, MT US",2007-08-06,2008-05-30,47.929621,-111.816224,1071.1
GHCND:US1MTTN0006,"FAIRFIELD 5.0 NNE, MT US",2018-12-18,2026-01-15,47.6825,-111.93908,1192.1
GHCND:US1MTTR0001,"HYSHAM 8.0 W, MT US",2010-04-25,2019-07-06,46.273,-107.3943,831.5
GHCND:US1MTTR0002,"HYSHAM 0.4 ESE CLOSED, MT US",2010-11-18,2014-06-18,46.28981759,-107.22785012,813.2
GHCND:US1MTTR0003,"FORSYTH 19.5 W, MT US",2011-12-02,2021-04-26,46.31472222,-107.0794444,792.5
GHCND:US1MTVL0001,"FRAZER 15.6 NNE, MT US",2006-12-03,2014-05-31,48.2653,-105.934,827.8
GHCND:US1MTVL0002,"GLASGOW 0.3 N, MT US",2006-12-21,2026-01-16,48.2033,-106.6311,666.9
GHCND:US1MTVL0003,"FORT PECK 0.5 S, MT US",2006-12-10,2025-10-31,48.00233,-106.45057,671.8
GHCND:US1MTVL0004,"NASHUA 8.3 SSW, MT US",2007-05-01,2026-01-06,48.032182,-106.449319,618.1
GHCND:US1MTVL0005,"NASHUA 0.3 N, MT US",2007-07-25,2025-12-13,48.139173,-106.355302,633.7
GHCND:US1MTVL0007,"GLASGOW 2.0 NNW, MT US",2008-05-13,2021-09-21,48.222539,-106.654258,649.5
GHCND:US1MTVL0008,"NASHUA 4.7 NE, MT US",2008-05-22,2013-07-25,48.17491224,-106.27462892,708.1
GHCND:US1MTVL0012,"FRAZER 8.5 ENE, MT US",2010-05-31,2014-08-25,48.1102,-105.8861,676
GHCND:US1MTVL0013,"GLASGOW 0.9 ESE, MT US",2010-10-15,2018-01-27,48.194705,-106.612508,673
GHCND:US1MTVL0014,"GLASGOW 4.3 NW, MT US",2010-11-17,2012-10-01,48.246154,-106.693211,641.3
GHCND:US1MTVL0016,"GLASGOW 3.5 N, MT US",2011-06-07,2025-12-27,48.248526,-106.635361,661.7
GHCND:US1MTVL0020,"GLASGOW 5.9 NNE, MT US",2018-05-31,2018-12-06,48.276834,-106.581245,698
GHCND:US1MTVL0021,"OPHEIM 0.2 NW, MT US",2019-05-02,2022-10-11,48.85901,-106.41173,998.5
GHCND:US1MTVL0023,"GLASGOW 8.0 SSE, MT US",2020-05-19,2021-06-11,48.0853,-106.5952,711.4
GHCND:US1MTVL0024,"GLASGOW 14.6 NNE, MT US",2023-10-17,2026-01-04,48.40304,-106.55128,841.9
GHCND:US1MTWH0003,"TWO DOT 0.4 WNW, MT US",2014-03-07,2022-10-14,46.426752,-110.079812,1354.8
GHCND:US1MTWH0004,"HARLOWTON 1.1 ESE, MT US",2014-07-21,2018-10-10,46.431404,-109.813131,1271.6
GHCND:US1MTYS0005,"BILLINGS 2.8 WNW, MT US",2007-04-19,2021-06-30,45.800604,-108.59465,1029.9
GHCND:US1MTYS0006,"BILLINGS 3.1 W CLOSED, MT US",2007-04-18,2012-04-03,45.79771,-108.601817,1015
GHCND:US1MTYS0007,"BILLINGS 8.8 W CLOSED, MT US",2007-04-23,2008-12-24,45.782,-108.72,1051.9
GHCND:US1MTYS0008,"BILLINGS 1.0 NW, MT US",2007-05-09,2018-01-12,45.800157,-108.555304,1028.1
GHCND:US1MTYS0009,"BILLINGS 5.3 NE CLOSED YS 28, MT US",2008-05-05,2014-10-04,45.84085,-108.454583,961.9
GHCND:US1MTYS0010,"BILLINGS 1.4 WSW CLOSED, MT US",2007-10-09,2008-10-23,45.782489,-108.564929,983.9
GHCND:US1MTYS0011,"BILLINGS 7.4 SW, MT US",2007-10-18,2022-10-28,45.71478,-108.6473,983
GHCND:US1MTYS0012,"BILLINGS 7.1 W, MT US",2007-10-25,2021-10-05,45.7995,-108.686,1040
GHCND:US1MTYS0013,"BILLINGS 5.1 S, MT US",2008-01-20,2023-07-19,45.71917,-108.52183,1008.9
GHCND:US1MTYS0014,"BILLINGS 4.5 NE, MT US",2008-05-29,2026-01-15,45.83233,-108.44399,963.8
GHCND:US1MTYS0015,"BILLINGS 9.5 ENE, MT US",2009-02-26,2018-06-26,45.818974,-108.345879,1082.3
GHCND:US1MTYS0018,"BILLINGS 4.7 ESE CLOSED, MT US",2010-07-05,2011-10-12,45.773552,-108.443416,1043.6
GHCND:US1MTYS0019,"SHEPHERD 4.0 NW CLOSED, MT US",2011-07-13,2016-09-05,45.977214,-108.41058,958.6
GHCND:US1MTYS0020,"LAUREL 0.5 NW CLOSED, MT US",2011-11-20,2013-11-15,45.673994,-108.779445,1003.4
GHCND:US1MTYS0021,"BILLINGS 3.7 SW CLOSED, MT US",2012-07-31,2015-05-29,45.741589,-108.553481,1020.8
GHCND:US1MTYS0025,"LAUREL 2.4 NE, MT US",2013-05-02,2020-06-02,45.696828,-108.733723,1020.5
GHCND:US1MTYS0027,"BILLINGS 3.2 NNE, MT US",2014-07-04,2026-01-16,45.835948,-108.522053,1037.2
GHCND:US1MTYS0028,"BILLINGS 4.2 WSW, MT US",2014-10-06,2026-01-13,45.75951,-108.613251,990.3
GHCND:US1MTYS0030,"BILLINGS 0.6 W CLOSED, MT US",2015-10-22,2016-11-02,45.791652,-108.550186,982.4
GHCND:US1MTYS0032,"BILLINGS 3.4 NNE, MT US",2016-03-24,2024-01-09,45.837651,-108.516505,1026.3
GHCND:US1MTYS0033,"BILLINGS 4.1 WSW, MT US",2016-04-02,2021-05-10,45.761483,-108.612284,994.3
GHCND:US1MTYS0034,"BILLINGS 6.9 ENE CLOSED, MT US",2016-04-11,2016-09-03,45.819695,-108.401331,957.1
GHCND:US1MTYS0037,"BILLINGS 3.3 NW, MT US",2018-12-01,2021-09-20,45.81851,-108.595367,1133.2
GHCND:US1MTYS0039,"MT YS 39 CLOSED, MT US",2019-09-23,2020-08-03,45.782282,-108.525097,961.6
GHCND:US1MTYS0041,"BILLINGS 1.7 W, MT US",2020-08-01,2026-01-14,45.793839,-108.573339,999.7
GHCND:US1MTYS0043,"BILLINGS 1.1 S, MT US",2022-04-23,2024-05-09,45.775751,-108.540146,963.5
GHCND:US1MTYS0044,"BILLINGS 5.3 SSE, MT US",2023-05-08,2024-11-24,45.7182,-108.5037,1028.7
GHCND:US1MTYS0046,"BILLINGS 1.9 WNW, MT US",2002-12-29,2026-01-12,45.798985,-108.575882,1030.8
GHCND:US1MTYS0047,"BILLINGS 4.3 S, MT US",2024-01-10,2026-01-01,45.7294047,-108.5249444,996.7
GHCND:US1MTYS0048,"WORDEN 2.5 W, MT US",2024-05-10,2025-10-06,45.961947,-108.215039,905
GHCND:USC00240021,"ABSAROKEE 1, MT US",1905-03-16,1913-12-31,45.516667,-109.45,1219.2
GHCND:USC00240056,"ADEL, MT US",1898-02-21,2025-12-14,47.0091,-111.6741,1529.2
GHCND:USC00240075,"ALBERTON, MT US",1958-04-01,2026-01-17,47.0036,-114.4781,932.7
GHCND:USC00240088,"ALBION 1 N, MT US",1945-06-27,2021-02-28,45.2088,-104.2647,1009.5
GHCND:USC00240100,"ALDER, MT US",1950-06-01,1980-05-31,45.31667,-112.11667,1562.1
GHCND:USC00240110,"ALDER 17 S, MT US",1956-10-01,2008-01-21,45.0708,-112.0575,1783.1
GHCND:USC00240111,"ALDER 19 S, MT US",2009-01-01,2025-12-31,45.0962,-112.0856,1752.3
GHCND:USC00240115,"ALDER RUBY DAM, MT US",1981-02-01,1993-04-30,45.25,-112.11667,1612.4
GHCND:USC00240165,"ALZADA, MT US",1904-11-01,1951-09-30,45.0155,-104.4108,1051.6
GHCND:USC00240179,"ALZADA 6 NW, MT US",1951-03-15,1954-08-31,45.06667,-104.51667,1018.9
GHCND:USC00240181,"ALZADA 8 NW, MT US",1951-03-14,1951-09-30,45.08333,-104.53333,1043
GHCND:USC00240199,"ANACONDA, MT US",1894-06-01,2026-01-18,46.13439,-112.97461,1635.6
GHCND:USC00240202,"ANCENEY, MT US",1952-03-02,1974-05-31,45.65,-111.36667,1452.1
GHCND:USC00240236,"APEX 2 NW, MT US",1949-06-19,1977-12-31,45.4,-112.71667,1647.1
GHCND:USC00240255,"ARGENTA, MT US",1949-06-01,1958-06-30,45.28333,-112.86667,1830
GHCND:USC00240274,"ARMSTEAD, MT US",1950-01-01,1952-12-31,44.96667,-112.86667,1675.2
GHCND:USC00240325,"ASHLAND 17 S, MT US",1948-07-02,1949-12-31,45.35,-106.26667,1189.9
GHCND:USC00240330,"ASHLAND RANGER STATION, MT US",1950-04-01,1951-09-30,45.5938,-106.2722,896.1
GHCND:USC00240364,"AUGUSTA, MT US",1896-06-20,2025-11-24,47.4926,-112.397,1240.5
GHCND:USC00240370,"AUGUSTA 11 WNW, MT US",1960-06-01,1967-06-30,47.55,-112.61667,1478.9
GHCND:USC00240375,"AUSTIN 1 W, MT US",1950-04-12,2018-02-28,46.6456,-112.2656,1478.6
GHCND:USC00240389,"BABB, MT US",2011-01-01,2012-05-31,48.99417,-113.38306,1361.8
GHCND:USC00240392,"BABB 6 NE, MT US",1906-05-15,2011-05-31,48.9388,-113.3719,1310.6
GHCND:USC00240408,"BAINVILLE 6 NE, MT US",2006-10-01,2013-12-07,48.1404,-104.1319,615.1
GHCND:USC00240412,"BAKER, MT US",1922-09-28,2013-06-30,46.3662,-104.2821,894
GHCND:USC00240432,"BALLANTINE, MT US",1919-04-01,2011-12-06,45.9497,-108.1438,914.4
GHCND:USC00240443,"BANGTAIL RIDGE, MT US",1969-10-02,1972-06-30,45.8,-110.8,2425
GHCND:USC00240466,"RYEGATE, MT US",1941-01-01,1998-04-30,46.2986,-109.2561,1112.5
GHCND:USC00240490,"BARTHELMESS RANCH, MT US",1924-05-01,1926-08-31,45.8,-105.4,
GHCND:USC00240515,"BASIN, MT US",1944-10-31,1970-11-30,46.26667,-112.26667,1634.9
GHCND:USC00240520,"BASIN 3 W, MT US",1971-02-12,1973-08-31,46.28333,-112.3,1687.1
GHCND:USC00240554,"BAYLOR, MT US",1941-07-18,2016-02-29,48.6715,-106.4808,903.1
GHCND:USC00240565,"BEAR CREEK, MT US",1906-01-04,1907-05-31,48.233333,-113.5,1417.3
GHCND:USC00240617,"BELFRY 4 SSW, MT US",1876-03-17,1974-06-30,45.08333,-109.03333,1189.9
GHCND:USC00240625,"BELGRADE 2 NW, MT US",2012-04-01,2015-10-31,45.8009,-111.2092,1248.5
GHCND:USC00240636,"BELLTOWER, MT US",1949-06-01,2025-12-31,45.6946,-104.3856,985.7
GHCND:USC00240662,"WEST GLACIER, MT US",1948-07-01,1949-09-30,48.5002,-113.9847,959.5
GHCND:USC00240700,"BERNICE, MT US",1915-05-01,1916-05-31,46.266667,-112.333333,1693.2
GHCND:USC00240739,"BIDDLE, MT US",1919-01-01,2025-11-25,45.10074,-105.31856,1009.5
GHCND:USC00240743,"BIDDLE 8 SW, MT US",1963-10-09,2026-01-15,45.0429,-105.4799,1106.7
GHCND:USC00240748,"BIG ARM, MT US",1966-06-01,1971-12-31,47.8,-114.3,887.9
GHCND:USC00240749,"BIG CREEK, MT US",1909-03-01,1910-06-30,45.316667,-110.85,1766
GHCND:USC00240755,"BIGFORK 13 S, MT US",1938-11-01,2025-10-31,47.87683,-114.03361,908
GHCND:USC00240759,"BIG OX, MT US",1916-08-01,1928-02-29,46.783333,-112.366667,1463
GHCND:USC00240770,"BIG SANDY, MT US",1921-09-01,2025-12-31,48.13514,-110.06364,843.7
GHCND:USC00240775,"BIG SKY 2 WNW, MT US",1984-03-01,2021-10-01,45.2774,-111.3252,2008.6
GHCND:USC00240780,"BIG TIMBER, MT US",1894-04-01,2026-01-17,45.8326,-109.9511,1249.7
GHCND:USC00240786,"BIG TIMBER CREEK, MT US",1910-01-01,1912-12-31,46.033333,-110.216667,1981.2
GHCND:USC00240801,"BILLINGS WEATHER FORECAST OFFICE, MT US",1999-02-01,2026-01-18,45.7502,-108.5696,970.8
GHCND:USC00240802,"BILLINGS WATER TREATMENT PLANT, MT US",1894-04-01,2026-01-15,45.7716,-108.4811,944
GHCND:USC00240814,"BIRCH CREEK CAMP, MT US",1936-01-01,1943-01-31,45.41667,-112.85,2012.9
GHCND:USC00240819,"BIRNEY, MT US",1954-11-13,1999-07-31,45.32472,-106.5125,963.2
GHCND:USC00240821,"BIRNEY 7 E, MT US",1950-01-01,1951-05-31,45.28333,-106.35,915
GHCND:USC00240824,"BIRNEY 11 E, MT US",1951-09-12,1954-08-31,45.33333,-106.25,1189.9
GHCND:USC00240827,"BIRNEY 15 N, MT US",1969-10-10,1972-10-31,45.53333,-106.51667,1257
GHCND:USC00240845,"BISON MOUNTAIN, MT US",1909-06-16,1911-07-31,46.4,-112.416667,2207.7
GHCND:USC00240877,"BLACKLEAF, MT US",1905-02-01,2010-10-31,48.0127,-112.4369,1290.8
GHCND:USC00240912,"BLAKESLEE, MT US",1921-03-31,1955-03-25,47.2,-108.66667,1068
GHCND:USC00240923,"BLOOMFIELD, MT US",1968-12-02,2012-09-30,47.4694,-104.895,814.7
GHCND:USC00240926,"BLOOMFIELD 6 E, MT US",1908-03-12,1968-11-30,47.41667,-104.8,777.8
GHCND:USC00240929,"BLOOMFIELD 9 NNE, MT US",1991-10-01,1999-09-30,47.52861,-104.87333,865.9
GHCND:USC00241008,"BOULDER, MT US",1880-07-23,2026-01-18,46.231,-112.1138,1494.7
GHCND:USC00241017,"BOWDOIN 7 NNE, MT US",1951-06-03,1952-07-31,48.48333,-107.53333,680
GHCND:USC00241022,"BOWEN, MT US",1906-10-17,1921-07-31,45.75,-113.45,1853.2
GHCND:USC00241030,"BOX ELDER, MT US",1913-05-17,1915-10-31,48.3,-109.983333,815.9
GHCND:USC00241040,"BOYES, MT US",1904-02-13,1971-11-30,45.26667,-105.01667,1015.9
GHCND:USC00241044,"BOZEMAN MONTANA STATE UNIVERSITY, MT US",1892-04-08,2026-01-18,45.6621,-111.0463,1497.5
GHCND:USC00241046,"BOZEMAN 2, MT US",1896-02-01,1898-01-31,45.65,-111.05,1493.5
GHCND:USC00241047,"BOZEMAN 6 W EXPERIMENTAL FARM, MT US",1966-11-01,2026-01-18,45.6729,-111.1547,1455.4
GHCND:USC00241050,"BOZEMAN 12 NE, MT US",1950-06-08,1995-12-31,45.81667,-110.88333,1813.6
GHCND:USC00241080,"BRADY AZNOE, MT US",1912-03-01,1982-07-31,47.95,-111.33333,1015.9
GHCND:USC00241081,"BRADY 27 ENE THE KNEES, MT US",1986-05-01,2026-01-19,48.075,-111.2603,1013.5
GHCND:USC00241084,"BRANDENBERG, MT US",1956-05-01,2026-01-18,45.8162,-106.2329,844.3
GHCND:USC00241088,"BREDETTE, MT US",1950-04-01,2025-10-31,48.5155,-105.2991,705
GHCND:USC00241102,"BRIDGER 2 N, MT US",1900-09-01,2026-01-15,45.3261,-108.9091,1092.1
GHCND:USC00241127,"BROADUS, MT US",1920-02-23,2026-01-18,45.4441,-105.4072,924.2
GHCND:USC00241149,"BROADVIEW, MT US",1906-10-01,1991-03-31,46.1,-108.88333,1182.9
GHCND:USC00241160,"BROCKTON 17 N, MT US",2006-10-01,2019-03-31,48.3897,-104.9327,701
GHCND:USC00241164,"BROCKTON 20 S, MT US",2000-09-01,2026-01-18,47.8711,-104.9005,722.4
GHCND:USC00241169,"BROCKWAY 3 WSW, MT US",1959-08-01,2026-01-15,47.2876,-105.8299,801.6
GHCND:USC00241202,"BROWNING, MT US",1894-05-14,1989-11-30,48.5615,-113.0133,1327.4
GHCND:USC00241217,"BROWNING NUMBER 2, MT US",1990-03-01,1996-11-30,48.55,-113.01667,1334.7
GHCND:USC00241225,"BRUNELDA, MT US",1934-06-01,1936-10-31,46.916667,-107.266667,1005.8
GHCND:USC00241231,"BRUSETT 3 E, MT US",1910-07-13,2025-11-04,47.42003,-107.24737,869.9
GHCND:USC00241252,"BUFFALO, MT US",1949-05-20,1958-06-30,46.81667,-109.83333,1314.9
GHCND:USC00241262,"BULL LAKE, MT US",2008-06-01,2010-10-31,48.2561,-115.8494,708.7
GHCND:USC00241297,"BUSBY, MT US",1907-05-01,2026-01-13,45.5397,-106.9597,1045.5
GHCND:USC00241313,"MONTANA TECH BUTTE SCHOOL OF MINES, MT US",1946-01-03,2026-01-14,46.01261,-112.55858,1752.6
GHCND:USC00241320,"BUTTE SOUTH, MT US",2002-11-01,2012-06-07,45.9547,-112.5027,1688.6
GHCND:USC00241336,"BYNUM, MT US",1949-06-01,1980-02-29,47.98333,-112.31667,1211
GHCND:USC00241342,"BYNUM 4 SSE, MT US",1927-09-01,2026-01-19,47.9262,-112.2919,1231.1
GHCND:USC00241360,"CABIN CREEK, MT US",1909-08-01,1912-12-31,44.666667,-112.916667,2286
GHCND:USC00241408,"CAMERON, MT US",1912-02-01,1951-09-30,45.2,-111.68333,1676.4
GHCND:USC00241418,"CAMPBELL FARM CAMP 4, MT US",1882-02-17,1961-11-30,45.41667,-107.9,1113.1
GHCND:USC00241450,"CANYON CREEK, MT US",1907-05-06,1979-03-31,46.81667,-112.25,1314.9
GHCND:USC00241460,"CANYON FERRY, MT US",1898-11-01,1953-03-10,46.63333,-111.7,1058
GHCND:USC00241465,"CANYON FERRY DAM, MT US",1948-08-02,1957-01-11,46.65,-111.71667,1174.1
GHCND:USC00241470,"CANYON FERRY DAM, MT US",1907-12-28,1996-07-31,46.65,-111.73333,1119.2
GHCND:USC00241500,"CARDWELL, MT US",1978-05-01,1991-04-30,45.8604,-111.9523,1301.5
GHCND:USC00241518,"CARLYLE 13 NW, MT US",1962-04-15,2025-12-26,46.74441,-104.30927,958.6
GHCND:USC00241525,"CARTER 14 W, MT US",1982-11-01,2025-10-21,47.7921,-111.2204,1051.6
GHCND:USC00241530,"CARTER NEAR 10 N, MT US",1920-06-01,1930-08-31,47.916667,-110.95,1091.2
GHCND:USC00241552,"CASCADE 5 S, MT US",1894-06-01,2022-12-21,47.21909,-111.71084,1024.1
GHCND:USC00241555,"CASCADE 18 S, MT US",1951-01-27,1956-04-30,47.01667,-111.68333,1623.1
GHCND:USC00241557,"CASCADE 20 SSE, MT US",1876-11-27,2013-02-28,46.9956,-111.5772,1402.1
GHCND:USC00241565,"CASTLE, MT US",1896-12-18,1899-05-31,46.416667,-110.55,
GHCND:USC00241580,"CATARACT CREEK, MT US",1909-02-19,1909-12-31,46.25,-112.25,2133.6
GHCND:USC00241686,"CHESSMAN RESERVOIR, MT US",1908-11-01,1963-03-16,46.46667,-112.18333,1915.1
GHCND:USC00241692,"CHESTER, MT US",1900-07-01,2026-01-18,48.5091,-110.9694,954.6
GHCND:USC00241695,"CHESTER 31 N, MT US",1972-12-01,1987-08-31,48.96667,-110.93333,1000
GHCND:USC00241697,"CHESTER 26 NNW, MT US",1964-12-02,1972-09-30,48.9,-111.03333,1220.1
GHCND:USC00241722,"CHINOOK, MT US",1895-11-01,2026-01-19,48.5884,-109.2266,737.6
GHCND:USC00241726,"CHINOOK 11 S, MT US",2020-06-01,2026-01-19,48.43905,-109.23275,966.8
GHCND:USC00241727,"CHINOOK 15 N, MT US",1951-06-01,1960-02-29,48.8,-109.26667,798.9
GHCND:USC00241730,"CHINOOK 35 SE, MT US",2001-06-01,2024-12-31,48.1729,-109.0053,1024.1
GHCND:USC00241737,"CHOTEAU, MT US",1893-01-01,2026-01-18,47.8205,-112.1921,1172
GHCND:USC00241738,"CHOTEAU 8 NE, MT US",2010-06-01,2025-12-11,47.864,-112.0222,1140.3
GHCND:USC00241758,"CIRCLE, MT US",1963-09-01,2026-01-18,47.4122,-105.59547,755.9
GHCND:USC00241765,"CIRCLE 7 N, MT US",1929-01-01,1963-08-31,47.51667,-105.56667,741
GHCND:USC00241767,"CIRCLE 20 N, MT US",2005-09-01,2011-11-14,47.7139,-105.5922,736.1
GHCND:USC00241781,"CLARK CANYON DAM, MT US",2024-11-17,2026-01-18,45.0016,-112.8574,1700.8
GHCND:USC00241794,"CLEAR CREEK, MT US",1905-02-01,1920-07-31,48.3,-109.5,1018
GHCND:USC00241810,"CLEMONS, MT US",1899-01-01,1912-12-31,47.45,-112.383333,1424
GHCND:USC00241820,"CLEVELAND, MT US",1903-02-17,1957-06-11,48.26667,-109.15,1068
GHCND:USC00241824,"CLEVELAND 5 ENE, MT US",1957-06-12,1989-08-31,48.31667,-109.06667,1015.9
GHCND:USC00241831,"CLINTON 6 SE, MT US",2002-10-01,2008-08-31,46.7169,-113.6672,1088.1
GHCND:USC00241840,"WILSALL 1 S, MT US",2001-04-01,2025-11-30,45.9883,-110.6551,1528.6
GHCND:USC00241842,"CLYDE PARK 2 SE, MT US",1910-07-01,1959-10-31,45.85,-110.58333,1442.9
GHCND:USC00241875,"COHAGEN, MT US",1950-04-01,2025-10-31,47.05643,-106.61638,829.1
GHCND:USC00241880,"COHAGEN 9 WSW, MT US",1959-08-01,1967-02-28,46.98333,-106.76667,880.9
GHCND:USC00241883,"COHAGEN 22 SE, MT US",2011-07-01,2025-09-30,46.86294,-106.23902,873.3
GHCND:USC00241895,"COKEDALE, MT US",1893-01-01,1897-04-30,45.633333,-110.716667,1585
GHCND:USC00241905,"COLSTRIP, MT US",1927-03-01,2025-10-31,45.8944,-106.6336,980.8
GHCND:USC00241919,"COLUMBIA FALLS 5 SW, MT US",1893-03-01,1949-05-31,48.31667,-114.2,939.1
GHCND:USC00241938,"COLUMBUS, MT US",1930-10-01,2026-01-16,45.6444,-109.2675,1097.9
GHCND:USC00241953,"COMO, MT US",1908-07-01,1922-05-31,46.116667,-114.166667,
GHCND:USC00241968,"CONNER, MT US",1956-02-14,1971-08-31,45.93333,-114.13333,1229
GHCND:USC00241970,"CONNER 5 SE, MT US",1971-09-01,1975-12-21,45.86667,-114.05,1304.8
GHCND:USC00241974,"CONRAD, MT US",1911-03-01,2025-12-02,48.1737,-111.9502,1082
GHCND:USC00241975,"CONRAD 9 ESE MSR, MT US",1970-11-01,1972-09-30,48.13333,-111.75,1068
GHCND:USC00241976,"CONRAD 29 ENE PAR, MT US",1970-11-01,1972-08-31,48.28333,-111.33333,1196
GHCND:USC00241984,"CONTENT 4 NNE, MT US",1950-04-01,2025-10-31,48.08028,-107.52494,708.7
GHCND:USC00241989,"CONWAYS RANCH, MT US",1925-06-01,1942-10-31,44.9,-112,2226.9
GHCND:USC00241993,"COOKE, MT US",1905-04-08,1914-09-30,45.016667,-109.95,2316.5
GHCND:USC00241995,"COOKE CITY 2 W, MT US",1967-11-01,2013-06-30,45.0108,-109.982,2280.8
GHCND:USC00242012,"COPPER, MT US",1905-03-13,1955-02-10,46.6,-110.66667,1731.9
GHCND:USC00242054,"CORWIN SPRINGS, MT US",1951-06-27,1952-12-31,45.13333,-110.81667,1565.1
GHCND:USC00242104,"CRESTON, MT US",1949-02-15,2026-01-09,48.18819,-114.134,894.6
GHCND:USC00242112,"CROW AGENCY, MT US",1898-04-01,1991-07-31,45.6,-107.45,923.5
GHCND:USC00242122,"CULBERTSON, MT US",1900-12-01,2026-01-07,48.14739,-104.51745,588.6
GHCND:USC00242127,"CULBERTSON SOIL CONSERVATION SERVICE OFFIC, MT US",1950-03-01,1951-09-30,48.15,-104.51667,586.1
GHCND:USC00242132,"CULBERTSON 6 NE, MT US",1949-12-16,1951-09-30,48.21667,-104.43333,641
GHCND:USC00242185,"DAGMAR 4 NNE, MT US",1950-02-12,1951-09-30,48.63333,-104.18333,622.1
GHCND:USC00242221,"DARBY, MT US",1898-09-01,2026-01-18,46.0263,-114.1763,1182.6
GHCND:USC00242230,"DAYTON, MT US",1903-02-19,1926-04-30,47.9,-114.283333,891.5
GHCND:USC00242260,"DEBORGIA, MT US",1990-05-01,2001-04-30,47.41028,-115.35139,1158.2
GHCND:USC00242266,"DECKER, MT US",1904-06-01,2004-12-31,45.01167,-106.86361,1072.9
GHCND:USC00242272,"DEEP CREEK PASS 2, MT US",1978-09-01,1993-05-31,46.36667,-111.13333,1658.1
GHCND:USC00242273,"DEER LODGE 2, MT US",1893-01-01,1959-02-28,46.38333,-112.73333,1382
GHCND:USC00242275,"DEER LODGE 3 W, MT US",1959-04-15,2025-10-31,46.39053,-112.79786,1475.8
GHCND:USC00242301,"DEL BONITA, MT US",1951-05-24,2013-07-31,48.9983,-112.7886,1321.9
GHCND:USC00242309,"DELL, MT US",1898-12-01,1958-06-30,44.71667,-112.68333,1833.1
GHCND:USC00242312,"DELL, MT US",1957-03-19,1960-04-30,44.56667,-112.8,2015
GHCND:USC00242313,"DELL 19 SW, MT US",1949-09-01,1956-09-30,44.5,-112.91667,2379
GHCND:USC00242317,"DELPHIA, MT US",1950-04-01,1951-09-30,46.48333,-108.4,933
GHCND:USC00242322,"DELPHINE, MT US",1909-06-01,1910-08-31,46.633333,-110.566667,1524
GHCND:USC00242347,"DENTON, MT US",1908-02-01,2014-12-31,47.3181,-109.9372,1100.3
GHCND:USC00242409,"DILLON U OF MONTANA WESTERN, MT US",1895-01-01,2026-01-17,45.209,-112.639,1563.3
GHCND:USC00242414,"DILLON 9 SSE, MT US",1950-05-24,1952-12-31,45.09178,-112.60443,1676.4
GHCND:USC00242421,"DIVIDE, MT US",1915-02-14,2024-01-31,45.751,-112.7547,1630.7
GHCND:USC00242438,"DODSON, MT US",1883-08-28,2012-11-16,48.3991,-108.2625,699.2
GHCND:USC00242454,"DOOLEY, MT US",1941-06-01,1946-08-31,48.88333,-104.4,670.9
GHCND:USC00242477,"DOVETAIL, MT US",1949-12-12,1951-09-30,47.35,-108.25,836.1
GHCND:USC00242511,"DRUMMOND FAA AIRPORT, MT US",1927-05-01,1963-05-31,46.61667,-113.2,1293
GHCND:USC00242523,"DRY CREEK, MT US",1909-06-01,1912-12-31,46.333333,-111.083333,1676.4
GHCND:USC00242533,"DRYLAND EXPERIMENT S, MT US",1924-06-20,1944-11-30,45.9,-111.8,1495
GHCND:USC00242537,"DRY WOLF CAMP, MT US",1909-06-01,1913-04-30,47.166667,-110.333333,1828.8
GHCND:USC00242550,"DUNKIRK 19 NNE, MT US",1912-05-01,2026-01-18,48.7166,-111.4757,1012.9
GHCND:USC00242571,"DUPUYER, MT US",1948-08-01,1952-12-31,48.2,-112.5,1260
GHCND:USC00242574,"DUPUYER 5 SE, MT US",1951-04-21,1952-12-31,48.15,-112.43333,1281.1
GHCND:USC00242576,"DUPUYER 7 WNW, MT US",1961-12-01,1979-01-31,48.25,-112.63333,1250.9
GHCND:USC00242578,"DUPUYER 11 W, MT US",1992-01-01,1993-04-30,48.18333,-112.71667,1417.3
GHCND:USC00242584,"DUTTON 6 E, MT US",1950-04-01,1951-09-30,47.8433,-111.5795,1095.5
GHCND:USC00242600,"EAR MOUNTAIN, MT US",1939-03-01,1942-08-31,47.883333,-112.633333,1473.7
GHCND:USC00242604,"EAST ANACONDA, MT US",1905-09-01,1980-07-31,46.1,-112.91667,1681
GHCND:USC00242606,"EAST ANACONDA 2, MT US",1980-08-01,1982-01-31,46.11667,-112.93333,1585.3
GHCND:USC00242629,"EAST GLACIER, MT US",1953-01-01,2025-11-30,48.4472,-113.2236,1464.9
GHCND:USC00242634,"EAST HELENA, MT US",1925-01-01,1958-02-28,46.58333,-111.91667,1189
GHCND:USC00242658,"EDGAR 6 E, MT US",1941-07-01,1950-09-30,45.46667,-108.73333,1250.9
GHCND:USC00242661,"EDGAR 9 SE, MT US",1950-10-01,1974-04-30,45.38333,-108.71667,1220.1
GHCND:USC00242689,"EKALAKA, MT US",1896-11-23,2025-12-17,45.8863,-104.5478,1046.1
GHCND:USC00242719,"ELKHORN HOT SPRINGS, MT US",1891-07-07,1955-09-08,45.46667,-113.11667,2250.9
GHCND:USC00242723,"ELK PARK, MT US",1978-06-01,1979-04-30,46.08333,-112.41667,1922.1
GHCND:USC00242738,"ELLISTON, MT US",1909-07-01,2020-09-30,46.5631,-112.4342,1548.4
GHCND:USC00242778,"EMIGRANT, MT US",1880-06-21,1968-04-05,45.36667,-110.71667,1524.9
GHCND:USC00242783,"EMORY, MT US",1911-09-01,1930-07-31,46.533333,-108.983333,975.4
GHCND:USC00242793,"ENNIS, MT US",1918-01-01,2026-01-19,45.3394,-111.7122,1509.7
GHCND:USC00242812,"ESSEX, MT US",1951-08-16,2026-01-18,48.2828,-113.606,1173.5
GHCND:USC00242820,"ETHRIDGE, MT US",1949-05-25,2026-01-06,48.5585,-112.1252,1082.6
GHCND:USC00242825,"EUREKA, MT US",1924-04-01,1932-07-31,48.883333,-115.05,785.5
GHCND:USC00242827,"EUREKA RANGER STATION, MT US",1960-06-01,2025-10-05,48.8978,-115.0644,771.8
GHCND:USC00242835,"EVANS, MT US",1905-12-01,1911-04-30,47.233333,-111.1515,1493.5
GHCND:USC00242857,"FAIRFIELD, MT US",1927-01-01,2025-12-28,47.6151,-111.9861,1214
GHCND:USC00242867,"FAIRVIEW, MT US",1932-10-01,1956-01-31,47.85,-104.05,588.9
GHCND:USC00242871,"FALLON, MT US",1904-11-01,1917-01-31,46.833333,-105.133333,673
GHCND:USC00242876,"FARMINGTON, MT US",1915-06-01,1917-07-31,47.883333,-112.166667,1219.2
GHCND:USC00242886,"FINDON, MT US",1909-06-01,1942-01-31,46.61667,-110.35,1495
GHCND:USC00242950,"FISH CREEK, MT US",1909-08-01,1913-01-31,45.8,-112.333333,1726.4
GHCND:USC00242996,"FISHTAIL, MT US",1951-08-28,2021-07-31,45.453,-109.507,1371.6
GHCND:USC00242999,"FISHTAIL CREEK, MT US",1909-06-01,1910-08-31,45.366667,-109.666667,1524
GHCND:USC00243008,"FLATHEAD CREEK, MT US",1909-08-01,1925-09-30,45.966667,-110.9,1645.9
GHCND:USC00243013,"FLATWILLOW 4 ENE, MT US",1913-06-01,2025-11-30,46.82169,-108.37239,1002.8
GHCND:USC00243089,"FORKS 4 NNE, MT US",1915-01-01,1996-01-31,48.77778,-107.45361,792.2
GHCND:USC00243098,"FORSYTH, MT US",1975-10-01,2026-01-17,46.2721,-106.6755,766.6
GHCND:USC00243099,"FORSYTH 2 E, MT US",1904-08-01,1975-08-12,46.26667,-106.61667,830
GHCND:USC00243110,"FORT ASSINIBOINE, MT US",1917-01-01,2026-01-16,48.4982,-109.8014,815.3
GHCND:USC00243113,"FORT BENTON, MT US",1894-12-01,2026-01-19,47.8304,-110.6611,807.4
GHCND:USC00243118,"FORT BELKNAP 2 SW, MT US",2012-10-03,2025-11-04,48.4627,-108.7791,770.2
GHCND:USC00243124,"FORT CUSTER, MT US",1892-12-01,1897-10-31,45.733333,-107.566667,929.6
GHCND:USC00243127,"FORT HARRISON, MT US",1903-05-14,1913-01-31,46.616667,-112.1,1220.4
GHCND:USC00243139,"FORTINE 1 N, MT US",1906-03-01,2009-03-31,48.7783,-114.8997,914.4
GHCND:USC00243142,"FORTINE 2 NE, MT US",2009-11-01,2013-08-28,48.7822,-114.8767,926.6
GHCND:USC00243148,"FORT KEOGH, MT US",1893-02-01,1899-12-31,46.383333,-105.866667,724.2
GHCND:USC00243157,"FORT LOGAN, MT US",1893-01-01,2003-02-28,46.65472,-111.09389,1435.6
GHCND:USC00243175,"FORT PECK, MT US",1945-01-01,1956-11-30,48,-106.45,665.1
GHCND:USC00243176,"FORT PECK POWER PLANT, MT US",1956-12-01,2025-12-17,48.01205,-106.41174,631.2
GHCND:USC00243195,"FORT SHAW, MT US",1907-06-01,1926-12-31,47.5,-111.8,1066.8
GHCND:USC00243210,"FOSTER, MT US",1909-06-01,1931-04-30,45.916667,-107.566667,853.4
GHCND:USC00243238,"FOUR BUTTES, MT US",1934-07-13,1952-07-31,48.8,-105.6,755.9
GHCND:USC00243280,"FRAZER, MT US",1923-10-01,1966-07-31,48.06667,-106.05,630.9
GHCND:USC00243304,"FROID 6 SE NUMBER 13, MT US",1950-04-01,1951-09-30,48.26667,-104.41667,650.1
GHCND:USC00243309,"FROID, MT US",1950-04-01,1951-09-30,48.33333,-104.5,618.7
GHCND:USC00243346,"GALATA 16 SW, MT US",1949-06-01,2026-01-19,48.2922,-111.5682,1082
GHCND:USC00243366,"GALLATIN GATEWAY 10 SSW, MT US",1950-06-01,2008-07-31,45.4458,-111.2369,1658.4
GHCND:USC00243368,"GALLATIN GTWY 26 S, MT US",1952-10-01,1967-06-21,45.23333,-111.25,1876
GHCND:USC00243369,"GALLATIN GATEWAY 32, MT US",1951-07-01,1959-03-27,45.11667,-111.23333,1951.9
GHCND:USC00243372,"BIG SKY 2 WNW, MT US",1967-07-01,1984-02-29,45.2774,-111.3252,2008.6
GHCND:USC00243373,"GAME RANCH, MT US",1936-05-01,1941-02-28,45.033333,-110.75,1569.7
GHCND:USC00243378,"GARDINER, MT US",1956-04-12,2021-04-30,45.0316,-110.7036,1607.8
GHCND:USC00243383,"GARLAND, MT US",1922-04-01,1955-12-20,46.05,-105.91667,793.1
GHCND:USC00243389,"GARNEILL 9 E, MT US",1908-06-06,1915-09-30,46.733333,-109.566667,1981.2
GHCND:USC00243393,"GARNET, MT US",1951-08-16,1964-07-31,46.81667,-113.35,1848
GHCND:USC00243434,"GEORGETOWN LAKE, MT US",2001-10-01,2008-01-31,46.1836,-113.33,1972.1
GHCND:USC00243437,"GEORGETOWN LAKE 7 GABLES, MT US",2008-07-01,2012-10-25,46.1924,-113.2633,1953.8
GHCND:USC00243445,"GERALDINE, MT US",1950-12-22,2012-02-29,47.6014,-110.267,958.6
GHCND:USC00243455,"GERALDINE 6 SE, MT US",1905-04-01,1950-12-21,47.53333,-110.16667,1051.9
GHCND:USC00243459,"GERALDINE 20 ENE, MT US",2007-04-01,2007-09-30,47.63444,-109.89694,945.5
GHCND:USC00243463,"GEYSER 8 E, MT US",1913-05-01,1918-03-31,47.266667,-110.333333,1264.9
GHCND:USC00243479,"GIBBONS PASS, MT US",1950-04-03,1951-09-30,45.6928,-113.955,2154.9
GHCND:USC00243486,"GIBSON 2 NE, MT US",1951-06-23,2025-11-04,46.0398,-109.4954,1354.5
GHCND:USC00243489,"GIBSON DAM, MT US",1911-10-01,2026-01-19,47.6011,-112.7547,1399
GHCND:USC00243530,"GILDFORD, MT US",1958-09-01,2025-10-31,48.5646,-110.3027,859.5
GHCND:USC00243551,"EAST GLACIER, MT US",1949-08-01,1952-12-31,48.4472,-113.2236,1464.9
GHCND:USC00243554,"GLASGOW 14 NW, MT US",1951-06-01,2026-01-10,48.35313,-106.84241,659.3
GHCND:USC00243555,"GLASGOW WEATHER FORECAST OFFICE, MT US",2002-12-01,2026-01-19,48.2063,-106.6255,692.2
GHCND:USC00243556,"GLASGOW 46 SW, MT US",2001-06-01,2025-10-31,47.7088,-107.262,898.6
GHCND:USC00243557,"GLASGOW NUMBER 2, MT US",1893-07-01,2025-02-26,48.1924,-106.6383,637
GHCND:USC00243570,"GLEN, MT US",1958-04-01,2011-08-31,45.5262,-112.7005,1540.5
GHCND:USC00243581,"GLENDIVE, MT US",1893-01-01,2026-01-18,47.1059,-104.71759,632.5
GHCND:USC00243593,"GLENDIVE WATER PLANT, MT US",2011-01-01,2016-09-30,47.1056,-104.719,609.6
GHCND:USC00243599,"GLENTANA, MT US",1914-12-01,1917-08-31,48.85,-106.25,938.8
GHCND:USC00243603,"GLENWOOD, MT US",1897-08-01,1901-11-30,46.466667,-111.533333,1158.2
GHCND:USC00243617,"GOLDBUTTE 7 N, MT US",1905-03-20,2025-11-29,48.9754,-111.3989,1066.2
GHCND:USC00243707,"GRANT 5 SE, MT US",1928-10-01,2026-01-05,44.96546,-113.00404,1761.7
GHCND:USC00243709,"GRANT 6 NW, MT US",1953-10-03,1958-05-31,45.05,-113.18333,1891
GHCND:USC00243712,"GRANT 12 W, MT US",1913-10-01,1952-12-19,45,-113.31667,
GHCND:USC00243727,"GRASS RANGE, MT US",1914-02-08,2026-01-18,47.0256,-108.8035,1063.8
GHCND:USC00243731,"GRASSRANGE 15 NNE, MT US",1956-05-01,1964-10-31,47.23333,-108.7,990.9
GHCND:USC00243736,"GRASSRANGE 13 NE, MT US",1964-11-01,2016-04-30,47.1888,-108.6552,989.1
GHCND:USC00243749,"GREAT FALLS 16ST, MT US",1892-01-01,2025-10-31,47.4883,-111.2792,1068.3
GHCND:USC00243753,"GREAT FALLS WEATHER FORECAST OFFICE, MT US",1997-04-01,2026-01-18,47.4615,-111.385,1129.3
GHCND:USC00243865,"HALF MOON PASS, MT US",1909-07-03,1911-07-31,46.65,-109.333333,1981.2
GHCND:USC00243870,"HALF WAY HOUSE, MT US",1909-07-01,1912-12-31,46.25,-111.25,1828.8
GHCND:USC00243885,"HAMILTON, MT US",1895-06-01,2024-04-04,46.24622,-114.16794,1092.7
GHCND:USC00243888,"HAMMOND, MT US",1939-11-15,1942-11-30,45.216667,-104.883333,1132.3
GHCND:USC00243910,"HARB, MT US",1951-06-01,2018-08-31,48.2333,-107.4103,774.8
GHCND:USC00243915,"HARDIN, MT US",1948-07-01,2026-01-18,45.7316,-107.6091,877.8
GHCND:USC00243929,"HARLEM 4 W, MT US",1896-10-01,2011-09-29,48.5353,-108.7964,722.7
GHCND:USC00243934,"HARLEM 20 S, MT US",2001-06-01,2025-12-31,48.2383,-108.6782,821.4
GHCND:USC00243939,"HARLOWTON, MT US",1948-07-01,2025-11-30,46.4356,-109.8428,1286.9
GHCND:USC00243947,"HARLOWTON 11 NW, MT US",2010-05-01,2026-01-15,46.5786,-109.9477,1510
GHCND:USC00243950,"HASSEL, MT US",1909-03-21,1910-06-30,46.3,-111.666667,1585
GHCND:USC00243984,"HAUGAN 1 W, MT US",1912-02-01,2023-05-31,47.3889,-115.4225,963.2
GHCND:USC00243990,"HAVRE 14 N, MT US",1951-06-01,1958-06-30,48.75,-109.65,814.1
GHCND:USC00243991,"HAVRE NUMBER 2, MT US",1999-07-01,2000-04-30,48.54306,-109.76167,787.6
GHCND:USC00243992,"HAVRE 22 NW, MT US",1951-06-07,1952-12-31,48.78333,-110,865.9
GHCND:USC00244007,"HAXBY 18 SW, MT US",1922-04-01,1991-07-31,47.56667,-106.7,808
GHCND:USC00244016,"HAYDEN NEAR, MT US",1903-05-01,1905-08-31,48.933333,-115.166667,
GHCND:USC00244020,"HAYS, MT US",1921-11-01,1965-04-30,48,-108.7,1076.9
GHCND:USC00244027,"HEART BUTTE, MT US",1949-05-28,1959-04-30,48.2928,-112.8353,1374.3
GHCND:USC00244028,"HEART BUTTE 1 NW, MT US",2011-01-01,2014-11-19,48.3007,-112.8481,1372.8
GHCND:USC00244038,"HEBGEN DAM, MT US",1904-06-01,2026-01-18,44.8666,-111.3391,1977.8
GHCND:USC00244050,"HELENA 6 N, MT US",1923-08-01,1979-06-30,46.66667,-112.05,1158.8
GHCND:USC00244060,"HELENA 2, MT US",1997-04-01,2003-01-31,46.6175,-111.93444,1163.7
GHCND:USC00244078,"HERCULES RANCH, MT US",1915-12-01,1924-03-31,46.033333,-105.35,807.7
GHCND:USC00244084,"HERON 2 NW, MT US",1912-02-11,2026-01-18,48.08,-116.0014,682.8
GHCND:USC00244120,"HIGHWOOD, MT US",1951-02-01,1992-12-31,47.55,-110.78333,1036.6
GHCND:USC00244128,"HIGHWOOD 6 NE, MT US",1950-04-01,1950-11-10,47.63333,-110.68333,1068
GHCND:USC00244133,"HIGHWOOD 7 NE, MT US",1948-07-01,2025-10-31,47.6415,-110.6677,1097.3
GHCND:USC00244143,"HILGER, MT US",1950-01-02,1951-09-30,47.2531,-109.361,1243.6
GHCND:USC00244172,"HINGHAM, MT US",1951-05-26,1983-10-31,48.55,-110.43333,923.8
GHCND:USC00244174,"HINGHAM 12 N, MT US",1983-11-01,2025-12-13,48.7262,-110.456,899.2
GHCND:USC00244177,"HINSDALE 1 E, MT US",1946-06-01,1971-05-31,48.4,-107.05,655.9
GHCND:USC00244180,"HINSDALE 4 SW, MT US",1971-06-01,2026-01-12,48.34774,-107.15341,855
GHCND:USC00244181,"HINSDALE 21 SW, MT US",2002-02-01,2025-10-16,48.1279,-107.3111,722.1
GHCND:USC00244182,"HINSDALE 23 N, MT US",1951-06-01,1974-07-31,48.75,-107.08333,741
GHCND:USC00244193,"HOBSON, MT US",1920-07-01,2021-12-08,46.9997,-109.8704,1293.6
GHCND:USC00244212,"HOGAN, MT US",1893-01-01,1898-12-31,47.416667,-112.016667,1399
GHCND:USC00244217,"HOGELAND 7 WSW, MT US",1951-06-01,1981-10-31,48.81667,-108.8,1021.4
GHCND:USC00244241,"HOLTER DAM, MT US",1903-03-01,2026-01-18,46.9907,-112.0116,1062.8
GHCND:USC00244245,"HOMEPARK, MT US",1905-03-20,1910-11-30,45.1,-112.1,1761.1
GHCND:USC00244248,"HOMESTEAD 5 E, MT US",2006-10-01,2025-11-30,48.41898,-104.45592,637
GHCND:USC00244263,"HORR, MT US",1893-01-01,1893-10-31,45.05,-110.8667,1578.6
GHCND:USC00244297,"HOT SPRINGS, MT US",1969-08-02,1991-04-30,47.6,-114.68333,883.9
GHCND:USC00244302,"HOYT 2 WSW, MT US",2000-10-01,2025-12-13,46.9191,-104.8966,648.3
GHCND:USC00244328,"HUNGRY HORSE DAM, MT US",1947-06-01,2026-01-19,48.3426,-114.0217,963.2
GHCND:USC00244343,"HUNTLEY, MT US",1906-04-19,1918-11-30,45.9,-109.316667,925.7
GHCND:USC00244345,"HUNTLEY EXPERIMENTAL STATION, MT US",1911-01-01,2026-01-16,45.9227,-108.2453,924.8
GHCND:USC00244358,"HYSHAM, MT US",1945-11-01,2026-01-05,46.28973,-107.23052,813.5
GHCND:USC00244364,"HYSHAM 25 SSE, MT US",1951-12-17,2026-01-17,45.9352,-107.1375,944.9
GHCND:USC00244368,"ILIAD, MT US",1950-03-01,2001-07-31,47.80556,-109.81,903.7
GHCND:USC00244381,"INGOMAR, MT US",1914-01-01,1955-09-30,46.58333,-107.36667,929.9
GHCND:USC00244384,"INGOMAR 6 SE, MT US",1924-03-01,1954-09-30,46.5,-107.31667,926.9
GHCND:USC00244386,"INGOMAR 9 E, MT US",1953-11-01,2026-01-19,46.5676,-107.195,853.4
GHCND:USC00244389,"INGOMAR 21 NE, MT US",1950-06-23,1953-10-31,46.81667,-107.03333,1022
GHCND:USC00244442,"ISMAY, MT US",1950-04-02,1951-09-30,46.54,-104.7522,827.5
GHCND:USC00244447,"JACKSON, MT US",1949-06-03,2013-04-01,45.368,-113.4089,1975.1
GHCND:USC00244462,"JARDINE, MT US",1951-06-26,1976-10-31,45.06667,-110.63333,1966.9
GHCND:USC00244506,"JOLIET, MT US",1951-09-02,2020-12-31,45.4732,-109.0105,1169.8
GHCND:USC00244509,"JONES CANYON, MT US",1909-04-01,1912-12-31,45.833333,-110.983333,1828.8
GHCND:USC00244512,"JOPLIN, MT US",1932-01-01,2025-10-31,48.5595,-110.7719,1012.9
GHCND:USC00244515,"JOPLIN 23 N, MT US",1939-01-01,1960-10-31,48.9,-110.81667,997
GHCND:USC00244522,"JORDAN, MT US",1905-01-01,2018-04-30,47.3144,-106.9104,798.6
GHCND:USC00244527,"JORDAN 22 E VAN NORM, MT US",1965-09-01,1986-04-30,47.35,-106.43333,724.2
GHCND:USC00244530,"JORDAN 23 ENE, MT US",1988-07-01,2000-12-31,47.48194,-106.46806,726.9
GHCND:USC00244538,"JUDITH GAP, MT US",1950-07-01,2023-08-31,46.67778,-109.75056,1411.2
GHCND:USC00244545,"JUDITH GAP 13 E, MT US",1964-10-15,2021-02-04,46.6102,-109.4737,1460.3
GHCND:USC00244558,"KALISPELL GLACIER AIRPORT, MT US",1896-06-01,2026-01-18,48.30408,-114.26426,903.2
GHCND:USC00244560,"KALISPELL 9 NNE, MT US",1997-01-03,2026-01-18,48.30919,-114.25264,906.8
GHCND:USC00244563,"KALISPELL, MT US",1949-01-01,2006-05-31,48.1891,-114.3113,896.1
GHCND:USC00244596,"KENILWORTH NEAR, MT US",1923-10-01,1936-03-31,48.23333,-110.45,823.9
GHCND:USC00244645,"KILA, MT US",1963-08-01,1991-04-30,48.11667,-114.46667,992.1
GHCND:USC00244648,"KILA 9 SSW, MT US",1977-04-01,1984-06-30,48,-114.53333,1213.1
GHCND:USC00244663,"KINGS HILL, MT US",1938-02-11,1982-09-30,46.83333,-110.7,2226.9
GHCND:USC00244675,"KINREAD, MT US",1921-01-01,1929-12-31,48.333333,-111.166667,876.6
GHCND:USC00244690,"KIPPEN, MT US",1923-11-01,1927-04-30,48.783333,-111.6,
GHCND:USC00244701,"KIRBY 1 S, MT US",1959-11-07,1975-07-31,45.31667,-106.98333,1204.9
GHCND:USC00244710,"KLEINSMITH CREEK, MT US",1909-03-01,1910-09-30,46.25,-112.166667,1828.8
GHCND:USC00244713,"KNOBLES RANCH, MT US",1911-04-01,1919-12-31,48.983333,-111.6,1325.9
GHCND:USC00244715,"KNOBS 4 SW, MT US",1951-09-05,2026-01-06,45.8727,-104.1583,940.6
GHCND:USC00244730,"KNOWLTON, MT US",1915-01-01,1943-02-28,46.3,-105,1097.3
GHCND:USC00244766,"KREMLIN, MT US",1914-08-01,2015-09-30,48.5217,-110.1075,871.7
GHCND:USC00244820,"LAKEVIEW, MT US",1904-11-01,2025-09-09,44.5994,-111.8125,2045.2
GHCND:USC00244830,"LAMBERT, MT US",1956-05-20,1974-07-31,47.68333,-104.61667,714.1
GHCND:USC00244839,"LAME DEER, MT US",1903-01-01,1998-05-31,45.62583,-106.66417,1005.8
GHCND:USC00244894,"LAUREL 3 WSW, MT US",1951-08-28,1994-02-28,45.66667,-108.81667,1011.6
GHCND:USC00244896,"LAURIN 2 NE, MT US",2009-01-01,2025-11-30,45.3674,-112.0965,1584.4
GHCND:USC00244904,"LAVINA, MT US",1950-04-01,1951-09-30,46.293,-108.9416,1046.7
GHCND:USC00244954,"LENNEP 5 SW, MT US",1959-07-25,2019-01-22,46.3615,-110.5998,1706.9
GHCND:USC00244976,"LEWISTOWN, MT US",2008-12-02,2025-01-24,47.0706,-109.4101,1192.1
GHCND:USC00244978,"LEWISTOWN 11 SSE, MT US",1949-05-01,2026-01-18,46.90573,-109.41135,1513.3
GHCND:USC00244979,"LEWISTOWN 11 ESE, MT US",2007-04-24,2020-10-02,47.0069,-109.2231,1532.5
GHCND:USC00245000,"LIBBY, MT US",1998-01-01,2026-01-18,48.39447,-115.58842,653.8
GHCND:USC00245009,"LIBBY DAM, MT US",1969-07-01,1986-08-31,48.4,-115.3,670.9
GHCND:USC00245011,"LIBBY DAM BASE, MT US",1986-09-01,2026-01-19,48.41,-115.318,643.1
GHCND:USC00245015,"LIBBY 1 NE RANGER STATION, MT US",1895-06-01,2022-05-08,48.4036,-115.5392,638.9
GHCND:USC00245020,"LIBBY 32 SSE, MT US",1910-04-01,2021-04-15,47.95785,-115.21447,1048.5
GHCND:USC00245030,"LIMA, MT US",1898-12-01,2025-11-30,44.6331,-112.5928,1913.8
GHCND:USC00245032,"LIMA DAM, MT US",1949-06-01,1958-06-30,44.66667,-112.36667,2044
GHCND:USC00245038,"LINCOLN 14 NE, MT US",1956-07-01,1964-08-19,47.03333,-112.41667,1570.9
GHCND:USC00245040,"LINCOLN RANGER STATION, MT US",1948-07-01,2026-01-18,46.95639,-112.65608,1408.2
GHCND:USC00245043,"LINDBERGH LAKE, MT US",1959-05-13,2026-01-05,47.4083,-113.7125,1316.7
GHCND:USC00245045,"LINDSAY, MT US",1915-06-01,2026-01-13,47.22529,-105.15221,820.8
GHCND:USC00245076,"LIVINGSTON, MT US",1895-09-01,1981-11-30,45.66667,-110.56667,1368.9
GHCND:USC00245080,"LIVINGSTON 12 S, MT US",1951-06-26,2026-01-18,45.4955,-110.559,1537.4
GHCND:USC00245088,"LIVINGSTON RAIN GAUGE, MT US",2009-08-01,2021-10-31,45.697,-110.454,1431.6
GHCND:USC00245091,"LLOYD, MT US",1951-06-08,1952-12-31,48.3,-109.35,1189.9
GHCND:USC00245106,"LODGE GRASS, MT US",1904-04-01,1951-09-30,45.379,-107.3787,994.6
GHCND:USC00245123,"LOGAN LANDFILL, MT US",2008-06-01,2026-01-19,45.8756,-111.4106,1293.3
GHCND:USC00245144,"LOLO HOT SPRINGS, MT US",2008-03-01,2025-08-27,46.7258,-114.533,1274.4
GHCND:USC00245146,"LOLO HOT SPRINGS 2 NE, MT US",1959-10-01,1984-08-31,46.7506,-114.5139,1236
GHCND:USC00245153,"LOMA, MT US",1950-04-01,2025-12-31,47.9363,-110.5024,785.8
GHCND:USC00245164,"LONEPINE 1 WNW, MT US",1918-11-22,1969-06-30,47.71667,-114.65,878.1
GHCND:USC00245169,"LONEPINE, MT US",1950-09-26,1951-06-03,47.7,-114.63333,865.9
GHCND:USC00245177,"LONESOME LAKE, MT US",1948-07-01,1981-01-31,48.25,-110.2,841.9
GHCND:USC00245191,"LORING 10 N, MT US",1951-06-01,1975-07-31,48.95,-107.81667,811.1
GHCND:USC00245192,"LOST CREEK, MT US",1910-01-09,1912-12-31,46.166667,-112.9,1585
GHCND:USC00245193,"LOST HORSE CREEK, MT US",1909-06-01,1911-04-30,46.366667,-110.383333,1767.8
GHCND:USC00245195,"LOST LAKE, MT US",1950-02-01,1951-09-30,48.65,-108.3,946.1
GHCND:USC00245211,"LOTHAIR, MT US",1912-01-01,1942-08-31,48.48333,-111.21667,1010.1
GHCND:USC00245235,"LOWETH, MT US",1926-07-01,1959-07-24,46.36667,-110.7,1769.1
GHCND:USC00245250,"LUBEC, MT US",1907-11-01,1910-02-28,48.383333,-113.283333,1539.8
GHCND:USC00245285,"LUSTRE 4 NNW, MT US",1921-08-01,1993-10-31,48.45,-105.93333,890.9
GHCND:USC00245300,"MACDONALD PASS, MT US",1978-05-12,1980-04-30,46.56667,-112.3,1909
GHCND:USC00245303,"MACKENZIE, MT US",1950-06-20,2025-10-31,46.1422,-104.7352,856.5
GHCND:USC00245334,"MALTA, MT US",1996-06-01,2026-01-16,48.3589,-107.8714,689.5
GHCND:USC00245337,"MALTA, MT US",1905-05-01,1972-05-31,48.35,-107.86667,688.8
GHCND:USC00245338,"MALTA 7 E, MT US",1972-06-01,2025-11-30,48.3939,-107.7285,680
GHCND:USC00245340,"MALTA 35 S, MT US",1959-09-01,2025-10-31,47.84177,-107.95563,797.1
GHCND:USC00245351,"MANHATTAN, MT US",1895-04-15,1983-06-30,45.86667,-111.33333,1289.9
GHCND:USC00245361,"MANY GLACIER, MT US",1967-08-09,1980-10-31,48.8,-113.65,1491.1
GHCND:USC00245387,"MARTINSDALE 3 NNW, MT US",1893-01-01,2012-04-30,46.5,-110.3378,1463
GHCND:USC00245388,"MARTINSDALE 10 NNE, MT US",2012-05-01,2014-01-14,46.609,-110.2787,1681.9
GHCND:USC00245390,"MARTINSDALE 14 NW, MT US",1905-11-18,1965-01-31,46.56667,-110.55,1677.9
GHCND:USC00245402,"MARYSVILLE 1 SW, MT US",1894-04-01,1982-11-30,46.75,-112.3,1768.1
GHCND:USC00245405,"MARYSVILLE 3, MT US",1959-01-15,1971-10-31,46.75,-112.3,1641
GHCND:USC00245530,"MCLARY S RANGER STATION, MT US",1916-05-14,1919-08-31,45.616667,-104.133333,975.4
GHCND:USC00245533,"MCLEOD, MT US",1951-06-22,2020-04-07,45.6627,-110.1147,1465.8
GHCND:USC00245540,"MCLEOD 12 SSW, MT US",1951-06-22,1990-10-31,45.51917,-110.22611,1591.1
GHCND:USC00245556,"MCRAE NEAR, MT US",1940-10-01,1945-07-31,45.783333,-107.116667,914.4
GHCND:USC00245565,"MEADOW CREEK, MT US",1909-08-01,1910-08-31,45.5,-111.866667,2133.6
GHCND:USC00245572,"MEDICINE LAKE 3 SE, MT US",1911-01-01,2025-11-30,48.4829,-104.4515,591.9
GHCND:USC00245590,"MELROSE, MT US",1950-06-02,1958-06-30,45.63333,-112.68333,1580.1
GHCND:USC00245596,"MELSTONE, MT US",1909-05-01,2025-12-31,46.6009,-107.8706,893.7
GHCND:USC00245602,"MELVILLE, MT US",1951-06-10,1959-10-31,46.1,-109.95,1531
GHCND:USC00245603,"MELVILLE 4 W, MT US",1960-04-14,2026-01-18,46.1047,-110.05,1635.3
GHCND:USC00245608,"MENARD 3 NE, MT US",1952-04-08,2011-09-17,45.9994,-111.1328,1540.2
GHCND:USC00245659,"MIKE HORSE, MT US",1948-07-01,1953-03-31,47.01667,-112.35,1539.8
GHCND:USC00245666,"MILDRED, MT US",1909-04-01,1978-07-31,46.68333,-104.95,734.9
GHCND:USC00245668,"MILDRED 7 NNW, MT US",1979-08-01,2026-01-14,46.7698,-105.03414,777.2
GHCND:USC00245685,"MILES CITY, MT US",1893-01-01,1982-07-31,46.4,-105.81667,719.9
GHCND:USC00245703,"MILL CREEK, MT US",1909-02-01,1910-04-30,45.333333,-110.666667,1676.4
GHCND:USC00245706,"MILLEGAN, MT US",1950-04-01,1951-09-30,47.0206,-111.3699,1371.6
GHCND:USC00245712,"MILLEGAN 14 SE, MT US",1984-07-01,2025-10-31,46.87505,-111.16455,1514.9
GHCND:USC00245724,"MINNEOTA, MT US",1923-01-01,1926-09-30,48.866667,-110.616667,1005.8
GHCND:USC00245735,"MISSOULA 2 NE, MT US",1966-10-12,2013-08-31,46.8983,-113.9678,1042.4
GHCND:USC00245740,"MISSOULA 6 NW WEATHER FORECAST OFFICE, MT US",1893-04-05,2026-01-18,46.9244,-114.0911,974.4
GHCND:USC00245754,"MIZPAH 4 NNW, MT US",1949-06-24,2025-11-30,46.2858,-105.2919,755.9
GHCND:USC00245761,"MOCCASIN EXPERIMENT STATION, MT US",1909-01-01,2024-12-31,47.0573,-109.951,1310.6
GHCND:USC00245791,"MOLT 6 SW, MT US",1950-03-02,2025-11-25,45.7846,-108.9663,1216.2
GHCND:USC00245807,"MONARCH, MT US",1897-01-01,1898-02-28,47.083333,-110.833333,
GHCND:USC00245811,"MONIDA, MT US",1949-06-01,1992-02-29,44.56667,-112.31667,2068.1
GHCND:USC00245814,"MONIDA 5 NE, MT US",1952-05-16,1952-09-30,44.6,-112.21667,2033.9
GHCND:USC00245845,"MONTANA RANGE SHEEP EXPERIMENT STATION, MT US",1939-03-01,1940-09-30,45.85,-110.766667,1828.8
GHCND:USC00245860,"MOORE, MT US",1907-05-01,1911-01-31,46.9,-109.716667,
GHCND:USC00245869,"MOORHEAD, MT US",1948-07-01,1958-04-30,45.06667,-105.86667,1022
GHCND:USC00245870,"MOORHEAD 9 NE, MT US",1958-06-18,2026-01-18,45.1758,-105.7516,981.5
GHCND:USC00245872,"MOSBY 4 ENE, MT US",1959-08-01,2023-04-30,47.02195,-107.82244,887
GHCND:USC00245873,"MOSBY 18 N, MT US",1955-03-01,1983-09-30,47.25,-107.95,708.1
GHCND:USC00245876,"MOSBY 23 N, MT US",1955-05-21,1960-03-31,47.33333,-107.93333,688.8
GHCND:USC00245886,"MOULTON RESERVOIR, MT US",1980-09-01,1986-04-30,46.08333,-112.5,2041.9
GHCND:USC00245925,"MOUNT SILCOX, MT US",1915-07-01,1925-09-23,47.633333,-115.283333,2089.4
GHCND:USC00245947,"MULLET S RANCH, MT US",1905-06-01,1907-05-31,47.833333,-104.666667,762
GHCND:USC00245955,"MUSSELSHELL, MT US",1893-12-01,1896-08-31,46.516667,-108.083333,913.5
GHCND:USC00245961,"MYSTIC LAKE, MT US",1924-08-01,2026-01-18,45.2436,-109.7311,1994.6
GHCND:USC00245983,"NASHUA NUMBER 2, MT US",1999-06-01,2014-09-30,48.1322,-106.3536,630
GHCND:USC00246001,"NEIHART, MT US",1905-03-12,1967-05-31,46.93333,-110.73333,1723
GHCND:USC00246007,"NEIHART 7 NW, MT US",2005-06-01,2016-07-31,47.0381,-110.7861,1507.2
GHCND:USC00246008,"NEIHART 8 NNW, MT US",1967-07-01,2005-02-28,47.0413,-110.7761,1594.1
GHCND:USC00246138,"NOHLY 4 NW, MT US",1951-01-01,1981-10-31,48.03333,-104.13333,580
GHCND:USC00246153,"NORRIS 3 ENE, MT US",1957-05-01,1982-02-28,45.58333,-111.65,1464
GHCND:USC00246157,"NORRIS MADISON POWER HOUSE, MT US",1907-01-01,2026-01-17,45.4875,-111.6336,1446.3
GHCND:USC00246188,"NYE, MT US",1954-02-01,1962-12-31,45.38333,-109.88333,1534.1
GHCND:USC00246190,"NYE NUMBER 2, MT US",1905-03-24,2021-02-06,45.4349,-109.808,1475.2
GHCND:USC00246195,"NYE MOUAT MINE, MT US",1953-12-01,1962-09-30,45.38333,-109.9,2114.1
GHCND:USC00246218,"OLNEY, MT US",1962-05-01,2017-05-31,48.5497,-114.5739,964.7
GHCND:USC00246225,"OLSEN CREEK, MT US",1909-03-01,1913-05-31,46.15,-112.483333,1934
GHCND:USC00246233,"OPHEIM, MT US",1928-10-17,1956-11-30,48.85,-106.41667,997
GHCND:USC00246236,"OPHEIM 10 N, MT US",1956-12-01,2025-03-31,48.99875,-106.37991,877.8
GHCND:USC00246238,"OPHEIM 12 SSE, MT US",1943-08-01,2024-10-31,48.6955,-106.3154,894.9
GHCND:USC00246244,"OPHIR, MT US",1909-06-01,1913-01-31,46.683333,-112.533333,1585
GHCND:USC00246287,"OTTER 9 SSW, MT US",1961-10-01,1990-01-31,45.1,-106.25,1237.5
GHCND:USC00246292,"OUTLOOK, MT US",1918-09-07,1951-07-08,48.9,-104.83333,668.1
GHCND:USC00246302,"OVANDO, MT US",1899-06-01,2026-01-18,47.0189,-113.1315,1252.4
GHCND:USC00246304,"OVANDO 9 SSE, MT US",1976-08-05,2011-02-28,46.8819,-113.0564,1318.3
GHCND:USC00246307,"OVANDO 7 WNW, MT US",1949-11-19,1969-07-31,47.05,-113.28333,1220.1
GHCND:USC00246364,"PARADISE, MT US",1962-07-01,1973-12-31,47.38333,-114.8,880.9
GHCND:USC00246370,"PARK CITY 1 NE, MT US",2006-01-01,2010-10-31,45.6517,-108.9019,1078.4
GHCND:USC00246406,"PAXTON, MT US",1922-10-01,1946-12-31,47.56667,-105.3,732.1
GHCND:USC00246426,"PENDROY 2 NNW, MT US",1940-09-01,1990-01-31,48.11667,-112.33333,1330.5
GHCND:USC00246440,"PENWELL S RANCH, MT US",1914-06-01,1916-05-31,46.1,-106.433333,
GHCND:USC00246470,"PHILIPSBURG, MT US",1903-09-01,1955-10-31,46.33333,-113.3,1610
GHCND:USC00246471,"PHILIPSBURG 7 S, MT US",1983-11-01,1989-12-31,46.21667,-113.3,1740.1
GHCND:USC00246472,"PHILIPSBURG RANGER STATION, MT US",1955-10-13,2026-01-16,46.3158,-113.3,1606.3
GHCND:USC00246475,"PHILLIPS 1 S, MT US",1951-06-01,1973-03-31,48.06667,-108.16667,808
GHCND:USC00246510,"PINEGROVE, MT US",1912-04-01,1928-07-31,46.8,-109.116667,
GHCND:USC00246534,"PIPESTONE DAM, MT US",1923-02-01,1932-09-30,45.983333,-112.333333,1767.8
GHCND:USC00246538,"PIPESTONE PASS, MT US",1909-03-01,1913-08-31,45.866667,-112.366667,2133.6
GHCND:USC00246562,"PLAINS RANGER STATION, MT US",1898-09-01,1951-09-30,47.4661,-114.8794,759
GHCND:USC00246576,"PLEASANT VALLEY, MT US",1906-01-01,1972-11-24,48.13333,-114.91667,1097.9
GHCND:USC00246580,"PLEASANT VALLEY 5 SE, MT US",1950-04-01,2024-11-18,48.1056,-114.8778,1079
GHCND:USC00246586,"PLENTYWOOD, MT US",1906-07-01,2023-06-30,48.77475,-104.56732,624.2
GHCND:USC00246601,"PLEVNA, MT US",1910-11-15,2026-01-18,46.4177,-104.5163,847.3
GHCND:USC00246608,"POLARIS, MT US",1949-06-01,1958-06-30,45.36667,-113.11667,2044
GHCND:USC00246615,"POLEBRIDGE, MT US",1933-07-06,2024-12-16,48.7647,-114.2842,1072.9
GHCND:USC00246618,"POLEBRIDGE 1 N, MT US",2006-10-01,2010-07-06,48.77917,-114.28889,1079
GHCND:USC00246635,"POLSON, MT US",1906-07-01,2015-03-31,47.6749,-114.1905,917.4
GHCND:USC00246640,"SKQ DAM, MT US",1951-03-22,2026-01-18,47.6775,-114.2419,832.1
GHCND:USC00246647,"POMPEYS PILLAR 15 N, MT US",1999-02-01,2026-01-19,46.1971,-108.004,1033.3
GHCND:USC00246655,"PONY, MT US",1894-04-01,1998-08-31,45.65722,-111.89861,1703.8
GHCND:USC00246660,"POPLAR 2 E, MT US",1893-02-01,1991-05-31,48.13333,-105.15,609.6
GHCND:USC00246672,"PORT OF MORGAN, MT US",1976-04-11,2026-01-16,48.9977,-107.833,862.6
GHCND:USC00246685,"POTOMAC, MT US",1964-12-02,2026-01-11,46.87672,-113.56258,1124.7
GHCND:USC00246688,"POWDER RIVER, MT US",1893-02-01,1894-03-31,45.7167,-105.0833,899.2
GHCND:USC00246691,"POWDERVILLE 8 NNE, MT US",1964-04-15,2026-01-18,45.8525,-105.035,853.4
GHCND:USC00246697,"POWDERVILLE, MT US",1949-06-04,1964-03-31,45.76667,-105.1,854
GHCND:USC00246700,"POWER 6 SE, MT US",1953-02-13,2014-05-31,47.6544,-111.598,1143
GHCND:USC00246747,"PRYOR, MT US",1950-06-13,2020-04-30,45.4339,-108.5362,1236.6
GHCND:USC00246759,"PRYOR 27 SE HILLSBOR, MT US",1951-09-05,1952-12-31,45.1,-108.23333,1220.1
GHCND:USC00246820,"RADERSBURG, MT US",1894-05-01,1899-02-28,46.166667,-111.566667,1234.4
GHCND:USC00246862,"RAPELJE, MT US",1908-04-01,2021-08-31,45.9718,-109.2537,1239.9
GHCND:USC00246893,"RAYMOND BORDER STATION, MT US",1950-09-01,2025-12-21,48.9976,-104.5751,714.8
GHCND:USC00246900,"RAYNESFORD 2 NNW, MT US",1954-05-18,1970-04-30,47.2972,-110.7456,1284.7
GHCND:USC00246902,"RAYNESFORD 2 NNW, MT US",1970-05-01,2013-07-30,47.2972,-110.7456,1284.7
GHCND:USC00246918,"RED LODGE, MT US",1894-03-01,2026-01-18,45.1769,-109.2571,1720.9
GHCND:USC00246927,"REDSTONE, MT US",1951-07-09,2011-06-30,48.8198,-104.9428,641.9
GHCND:USC00246946,"REEDPOINT, MT US",1950-04-01,1951-09-30,45.7061,-109.5399,1141.2
GHCND:USC00246952,"REESE CREEK, MT US",1909-03-24,1910-08-31,45.866667,-111.05,1447.8
GHCND:USC00246964,"RENOVA, MT US",1898-01-01,1932-12-31,45.816667,-112.15,1335.9
GHCND:USC00246976,"RESERVE 14 W, MT US",1950-04-25,1951-09-30,48.61667,-104.78333,688.8
GHCND:USC00246983,"REXFORD, MT US",1957-05-17,1971-06-30,48.86667,-115.23333,688.8
GHCND:USC00246986,"REXFORD RANGER STATION, MT US",1950-04-06,1960-05-31,48.88333,-115.2,716.9
GHCND:USC00247020,"RICHEY, MT US",1948-07-01,1979-09-30,47.63333,-105.06667,762.9
GHCND:USC00247023,"RICHEY 10 SW, MT US",2000-09-01,2013-08-31,47.5686,-105.2339,731.5
GHCND:USC00247028,"RIDGE 2 WSW, MT US",1899-01-01,1952-12-31,45.03333,-105.03333,1257
GHCND:USC00247032,"RIDGELAWN, MT US",1900-05-01,1908-02-29,47.783333,-104.133333,583.7
GHCND:USC00247034,"RIDGEWAY 1 S, MT US",1952-05-13,2026-01-18,45.5022,-104.4477,1010.7
GHCND:USC00247037,"RIDGWAY 4 SW, MT US",1949-06-01,1951-12-31,45.46667,-104.5,1007.1
GHCND:USC00247049,"RIMINI, MT US",1982-11-01,1984-08-31,46.5,-112.25,1585.3
GHCND:USC00247051,"RIMINI 1, MT US",1908-11-01,1910-04-30,46.5,-112.25,1585
GHCND:USC00247055,"RIMINI 4 NE, MT US",1984-09-01,1994-01-31,46.55,-112.16667,1432.3
GHCND:USC00247088,"RINGLING 1 E, MT US",1915-06-01,1958-06-30,46.26667,-110.76667,1623.1
GHCND:USC00247128,"ROBERTS 1 W, MT US",1951-08-25,2026-01-02,45.3752,-109.1697,1380.7
GHCND:USC00247136,"ROCK SPRINGS, MT US",1951-09-01,2013-09-30,46.8202,-106.2452,921.7
GHCND:USC00247140,"ROCK SPRINGS 7 SE, MT US",1915-05-01,1950-09-30,46.78333,-106.13333,976
GHCND:USC00247148,"ROCKY BOY, MT US",1951-06-01,1987-05-31,48.25,-109.78333,1125
GHCND:USC00247156,"ROGERS PASS, MT US",1953-05-01,1956-06-30,47.08333,-112.36667,1688.3
GHCND:USC00247159,"ROGERS PASS 9 NNE, MT US",1964-08-21,2022-06-30,47.1901,-112.2901,1280.2
GHCND:USC00247178,"ROSCOE, MT US",1951-09-01,1952-03-12,45.35,-109.5,1524.9
GHCND:USC00247182,"ROSCOE 4 SW, MT US",1952-06-08,1952-12-31,45.31667,-109.55,1695.9
GHCND:USC00247195,"ROTHIEMAY NEAR, MT US",1940-10-01,1945-05-31,46.533333,-109.266667,1424.9
GHCND:USC00247204,"ROUND BUTTE 1 NNW, MT US",1950-04-01,1951-09-30,47.5374,-114.2761,944.9
GHCND:USC00247214,"ROUNDUP, MT US",1914-06-04,2019-02-28,46.438,-108.5319,975.4
GHCND:USC00247220,"ROUNDUP 15 SW, MT US",2004-03-01,2025-11-06,46.3254,-108.7402,1032.1
GHCND:USC00247225,"ROY, MT US",1921-07-01,1924-09-30,47.333333,-108.95,1187.2
GHCND:USC00247228,"ROY 8 NE, MT US",1938-04-01,2005-04-30,47.4869,-108.8372,940.3
GHCND:USC00247234,"ROY 24 NE MOBRIDGE, MT US",1962-04-01,1993-07-31,47.61667,-108.7,705
GHCND:USC00247247,"RUDYARD 19 S, MT US",2001-03-01,2025-11-05,48.2774,-110.6022,877.2
GHCND:USC00247248,"RUDYARD 21 N, MT US",2000-11-01,2026-01-18,48.8539,-110.5969,914.4
GHCND:USC00247250,"RUDYARD 27 N, MT US",1960-11-02,1998-12-31,48.9375,-110.56611,917.4
GHCND:USC00247253,"RUDYARD NEAR, MT US",1915-10-01,1922-10-31,48.316667,-110.533333,
GHCND:USC00247258,"RUSSELL, MT US",1950-04-01,1951-09-30,48.0685,-111.0661,975.4
GHCND:USC00247261,"RYEGATE, MT US",1909-06-01,2026-01-14,46.2986,-109.2561,1112.5
GHCND:USC00247263,"RYEGATE 18 NNW, MT US",1962-08-01,2026-01-19,46.5333,-109.3441,1353.3
GHCND:USC00247264,"SACO, MT US",1914-11-19,1916-01-31,48.95,-107.333333,664.8
GHCND:USC00247265,"SACO 1 NNW, MT US",1966-07-01,2026-01-19,48.4661,-107.3528,666
GHCND:USC00247267,"SACO NELSON RESRVR, MT US",1921-05-01,1965-09-30,48.5,-107.51667,680
GHCND:USC00247273,"SAHARA, MT US",1930-11-23,1940-06-30,46.63333,-109.16667,1476.1
GHCND:USC00247286,"SAINT IGNATIUS, MT US",1896-02-06,2026-01-14,47.3149,-114.0982,888.5
GHCND:USC00247292,"ST. MARY, MT US",1981-05-01,2023-05-31,48.7386,-113.4295,1389.9
GHCND:USC00247295,"ST. MARY S LAKE, MT US",1913-11-15,1918-03-31,48.75,-113.433333,1371.6
GHCND:USC00247305,"ST. PETER, MT US",1901-05-01,1906-11-30,47.266667,-111.866667,1371.6
GHCND:USC00247314,"ST. REGIS, MT US",1908-01-01,1911-08-31,47.016667,-115.05,812
GHCND:USC00247316,"ST. REGIS CLARK FORK, MT US",2017-12-29,2026-01-19,47.3019,-115.0864,792.5
GHCND:USC00247318,"SAINT REGIS 1 NE, MT US",1960-10-21,2014-01-31,47.3036,-115.0909,810.8
GHCND:USC00247332,"SALTESE, MT US",1904-11-01,1909-12-31,47.433333,-115.5,1097.3
GHCND:USC00247342,"SAND CREEK, MT US",2005-09-01,2023-08-31,47.5775,-108.7283,887
GHCND:USC00247343,"SAND COULEE 3 ESE, MT US",2019-09-01,2025-09-30,47.3897,-111.0999,1181.7
GHCND:USC00247357,"SANTA RITA 14 N, MT US",1963-11-01,1969-05-31,48.9,-112.33333,1246.9
GHCND:USC00247362,"SANTA RITA 20 N, MT US",1950-06-01,1989-12-31,48.98333,-112.31667,1246.6
GHCND:USC00247367,"SAPPINGTON, MT US",1950-06-02,1952-12-31,45.8,-111.76667,1281.1
GHCND:USC00247374,"SARPY CREEK, MT US",1925-09-01,1942-12-31,46.1195,-107.1,823
GHCND:USC00247382,"SAVAGE, MT US",1905-08-01,2022-09-30,47.4535,-104.33786,602.9
GHCND:USC00247424,"SCOBEY, MT US",1948-07-02,1987-05-31,48.78333,-105.41667,749.2
GHCND:USC00247425,"SCOBEY 4 NW, MT US",1987-06-01,2025-12-21,48.83549,-105.4748,728.5
GHCND:USC00247448,"SEELEY LAKE RANGER STATION, MT US",1936-10-16,2026-01-19,47.2141,-113.5204,1249.7
GHCND:USC00247462,"SEVILLE, MT US",1910-11-10,1912-06-30,48.633333,-112.533333,1204
GHCND:USC00247500,"SHELBY, MT US",1950-04-01,2026-01-18,48.5133,-111.8551,1013.5
GHCND:USC00247501,"SHELBY AIRPORT, MT US",1958-07-01,1988-08-31,48.55,-111.86667,1044.2
GHCND:USC00247505,"SHELBY 7 S, MT US",1991-02-01,1992-03-31,48.41667,-111.88333,987.6
GHCND:USC00247507,"SHELBY 8 NW, MT US",1993-05-01,1994-10-31,48.61667,-111.91667,1051.6
GHCND:USC00247510,"SHERBURNE LAKE, MT US",1932-09-01,1951-09-30,48.83333,-113.51667,1495
GHCND:USC00247540,"SHONKIN 7 S, MT US",1953-05-13,2025-10-31,47.53101,-110.57668,1309.1
GHCND:USC00247560,"SIDNEY, MT US",1910-10-16,2026-01-15,47.72835,-104.14681,589.2
GHCND:USC00247562,"SIDNEY 2 S, MT US",2011-11-01,2026-01-16,47.67939,-104.15769,585.2
GHCND:USC00247603,"SILVER GATE, MT US",2012-10-01,2020-02-29,45.0156,-109.9684,2284.5
GHCND:USC00247605,"SILVER LAKE, MT US",1950-04-01,1983-09-30,46.16667,-113.21667,1976
GHCND:USC00247610,"SILVERSTAR, MT US",1950-04-01,1951-09-30,45.6917,-112.2834,1397.5
GHCND:USC00247618,"SIMMS 1 NE, MT US",1984-09-01,2014-08-25,47.4961,-111.9162,1084.5
GHCND:USC00247620,"SIMPSON 6 N WILDHORSE, MT US",1931-05-01,2026-01-18,48.998,-110.2157,858
GHCND:USC00247630,"SIOUX PASS, MT US",1924-10-19,1932-09-30,47.933333,-104.283333,609.6
GHCND:USC00247714,"SNOWBELT, MT US",1914-11-01,1934-05-31,47.033333,-107.383333,1005.8
GHCND:USC00247718,"SNOWSHOE, MT US",1907-01-01,1911-05-31,48.183333,-115.683333,1371.6
GHCND:USC00247730,"SONNETTE, MT US",1928-11-01,1950-09-30,45.4,-105.83333,1158.8
GHCND:USC00247735,"SONNETTE 4 N, MT US",1951-01-01,1965-01-31,45.46667,-105.81667,1068
GHCND:USC00247740,"SONNETTE 7 SW, MT US",1965-10-01,2024-10-31,45.3242,-105.9137,1193
GHCND:USC00247796,"SPRINGBROOK, MT US",1901-11-01,1928-12-31,47.366667,-105.75,786.4
GHCND:USC00247800,"SPRINGDALE, MT US",1951-06-21,2026-01-18,45.73833,-110.2243,1290.8
GHCND:USC00247848,"STACEY, MT US",1913-10-01,1916-12-31,45.6,-105.883333,
GHCND:USC00247858,"STANFORD, MT US",1927-04-01,1964-12-31,47.15,-110.21667,1304.8
GHCND:USC00247864,"STANFORD, MT US",1965-02-04,2026-01-18,47.15499,-110.22386,1307.3
GHCND:USC00247878,"STEARNS, MT US",1909-06-01,1912-12-31,47.183333,-112.316667,1371.6
GHCND:USC00247894,"STEVENSVILLE, MT US",1911-08-23,2026-01-13,46.51353,-114.09094,1018.3
GHCND:USC00247925,"STRYKER, MT US",1914-06-13,1920-03-31,48.633333,-114.7,998.2
GHCND:USC00247943,"SUFFOLK, MT US",1916-02-10,1921-01-31,47.483333,-109.433333,1030.2
GHCND:USC00247962,"SULA 2 SE, MT US",1915-07-01,1924-08-31,45.816667,-113.95,1402.1
GHCND:USC00247964,"SULA 2 SE SULA RS, MT US",1955-12-01,2026-01-09,45.81925,-113.9585,1392.9
GHCND:USC00247967,"SULA 14 NE, MT US",2001-08-09,2023-10-31,45.911,-113.7394,1571.2
GHCND:USC00247978,"SUMMIT, MT US",1903-01-01,2026-01-19,48.3162,-113.3542,1595
GHCND:USC00247992,"SUNBURST, MT US",1949-05-24,1951-04-30,48.88333,-111.91667,1022
GHCND:USC00247996,"SUNBURST 8 E, MT US",1951-06-07,2014-03-29,48.8869,-111.7275,1127.8
GHCND:USC00248008,"SUNLIT FARM, MT US",1911-03-01,1917-04-30,48.866667,-108.5,966.2
GHCND:USC00248018,"SUN RIVER, MT US",1895-03-01,1897-04-30,47.533333,-111.716667,1040.9
GHCND:USC00248021,"SUN RIVER 4 S, MT US",1912-07-19,2026-01-18,47.4773,-111.7375,1097.3
GHCND:USC00248028,"SUNSET ORCHARDS, MT US",1920-04-01,1930-01-31,46.45,-114,1219.2
GHCND:USC00248087,"SWAN LAKE, MT US",1950-04-02,2026-01-19,47.9161,-113.839,944.9
GHCND:USC00248093,"SWEETGRASS, MT US",1925-01-01,2008-01-31,48.9972,-111.9642,1069.8
GHCND:USC00248101,"SWIFT DAM, MT US",1965-05-01,1967-08-18,48.1633,-112.8672,1456.9
GHCND:USC00248152,"TEIGEN 10 NNE, MT US",1969-12-01,1972-02-29,47.16667,-108.48333,987.9
GHCND:USC00248156,"TEIGEN 13 NNE, MT US",1951-10-01,1956-03-24,47.23333,-108.55,1051.9
GHCND:USC00248161,"TELEGRAPH CREEK, MT US",1945-01-01,1974-08-31,47.8,-107.6,775.1
GHCND:USC00248165,"TERRY, MT US",1949-05-01,2026-01-16,46.794,-105.3021,685.8
GHCND:USC00248169,"TERRY 21 NNW, MT US",1949-12-01,2018-09-30,47.07,-105.49528,957.7
GHCND:USC00248202,"THOENY 1 E, MT US",1951-06-01,1966-02-28,48.88333,-106.88333,750.1
GHCND:USC00248207,"THOMPSON FALLS RANGER STATION, MT US",1911-08-01,1956-01-31,47.6,-115.35,744
GHCND:USC00248211,"THOMPSON FALLS PH, MT US",1956-02-01,2026-01-18,47.5932,-115.3595,725.4
GHCND:USC00248222,"THREE FORKS, MT US",1915-01-01,1931-06-30,45.9,-111.533333,1240.5
GHCND:USC00248233,"TIBER DAM, MT US",1952-11-14,2026-01-14,48.30973,-111.08714,886.7
GHCND:USC00248236,"TIBER LAKE, MT US",1948-07-01,1952-11-13,48.28333,-110.88333,915
GHCND:USC00248239,"TIZER GARDENS, MT US",2010-06-01,2022-08-26,46.3731,-112.0226,1424
GHCND:USC00248313,"TOSTON 2 SW, MT US",1895-09-01,1952-12-31,46.15,-111.48333,1204.9
GHCND:USC00248314,"TOSTON 1 W, MT US",1957-04-01,1982-02-19,46.16667,-111.46667,1199.1
GHCND:USC00248324,"TOWNSEND 3 SE, MT US",1948-07-01,2026-01-18,46.29885,-111.45245,1208.2
GHCND:USC00248329,"TOWNSEND 12 ENE, MT US",1950-04-01,1951-09-30,46.3566,-111.2841,1539.2
GHCND:USC00248363,"TRIDENT, MT US",1922-05-01,2023-11-01,45.9468,-111.4757,1230.2
GHCND:USC00248379,"TROUT CREEK 2 W, MT US",1912-10-05,1960-07-31,47.83333,-115.63333,759
GHCND:USC00248380,"TROUT CREEK RANGER STATION, MT US",1960-07-01,2026-01-16,47.86636,-115.62722,734.6
GHCND:USC00248390,"TROY, MT US",1960-09-01,2025-02-28,48.47861,-115.90548,607.8
GHCND:USC00248392,"TROY 1, MT US",1894-11-01,1910-11-30,48.383333,-115.866667,609.6
GHCND:USC00248395,"TROY 18 N, MT US",1961-06-01,1994-05-31,48.71667,-115.88333,827.5
GHCND:USC00248413,"TURNER, MT US",1932-06-01,1984-09-30,48.85,-108.4,928.4
GHCND:USC00248415,"TURNER 11 N, MT US",1985-10-01,2026-01-16,48.9992,-108.3895,908.9
GHCND:USC00248430,"TWIN BRIDGES, MT US",1950-06-01,2026-01-03,45.5472,-112.326,1409.7
GHCND:USC00248455,"ULM 8 SE TRULY, MT US",1948-07-01,2025-06-22,47.3558,-111.4406,1016.8
GHCND:USC00248473,"UNIONVILLE, MT US",1950-04-18,1959-11-30,46.55,-112.08333,1498.1
GHCND:USC00248477,"UPPER COLUMBIA STATION L, MT US",1950-04-01,1951-05-31,48.3,-113.36667,1478.9
GHCND:USC00248486,"UPPER LAKE MCDONALD, MT US",1906-03-01,1910-10-31,48.65,-113.883333,964.4
GHCND:USC00248488,"YAAK UPPER RIVER, MT US",1914-05-01,1936-02-29,48.83333,-115.71667,854
GHCND:USC00248493,"UTICA, MT US",1894-05-01,1952-12-31,46.96667,-110.08333,1434.1
GHCND:USC00248495,"UTICA 11 WSW, MT US",1962-02-01,1987-05-31,46.88333,-110.3,1524
GHCND:USC00248498,"VALENTINE, MT US",1907-03-01,2026-01-19,47.3391,-108.4992,885.4
GHCND:USC00248501,"VALIER, MT US",1911-08-01,2013-12-30,48.3119,-112.2493,1160.4
GHCND:USC00248511,"VANANDA 6 NE, MT US",1917-10-01,1951-09-30,46.43,-106.92,800.1
GHCND:USC00248521,"VAN DUZEN RANCH, MT US",1936-11-21,1939-08-31,47.033333,-107.2,883.9
GHCND:USC00248564,"VICTOR, MT US",1913-05-01,1934-12-31,46.41667,-114.2,1097.9
GHCND:USC00248569,"VIDA 6 NE, MT US",1935-01-01,2022-05-31,47.8799,-105.3686,696.2
GHCND:USC00248597,"VIRGINIA CITY, MT US",1893-01-01,2026-01-18,45.29252,-111.94456,1777.9
GHCND:USC00248607,"VOLBORG, MT US",1950-06-17,2026-01-10,45.8436,-105.6808,908.3
GHCND:USC00248640,"WALL ROCK MOUNTAIN, MT US",1909-04-26,1914-04-30,46.216667,-111.1,1706.9
GHCND:USC00248681,"WARLAND RANGER STATION, MT US",1963-06-01,1967-08-31,48.5,-115.28333,670.9
GHCND:USC00248683,"WARLAND 12 N, MT US",1963-08-01,1966-10-31,48.66667,-115.31667,680
GHCND:USC00248687,"WARM SPRINGS CREEK, MT US",1909-07-01,1912-12-31,46.18333,-112.75,1478.9
GHCND:USC00248691,"WARRICK, MT US",1904-11-01,1907-05-31,48.083333,-109.666667,
GHCND:USC00248693,"WARRICK 2 NW, MT US",1988-01-01,2025-10-31,48.0879,-109.6454,1295.4
GHCND:USC00248732,"WEBSTER 3 E, MT US",1951-09-06,2019-05-17,46.0558,-104.1852,957.1
GHCND:USC00248777,"WESTBY, MT US",1937-01-01,2025-10-31,48.8745,-104.05041,641
GHCND:USC00248783,"WESTERN AG RESEARCH CENTER, MT US",1965-04-01,2025-05-31,46.32822,-114.08472,1099.7
GHCND:USC00248809,"WEST GLACIER, MT US",1949-10-01,2026-01-16,48.5002,-113.9847,959.5
GHCND:USC00248857,"WEST YELLOWSTONE, MT US",1924-01-02,1996-03-31,44.65,-111.1,2030.9
GHCND:USC00248858,"WEST YELLOWSTONE GATEWAY, MT US",2007-04-01,2026-01-19,44.65654,-111.09019,2035.8
GHCND:USC00248859,"WEST YELLOWSTONE 9 NNW, MT US",2001-05-01,2007-08-31,44.7866,-111.1316,2003.1
GHCND:USC00248860,"WEST YELLOWSTONE 10 NNE, MT US",2009-05-01,2012-06-30,44.79167,-111.10917,2075.1
GHCND:USC00248893,"WHITEFISH, MT US",1983-09-01,1987-05-31,48.408,-114.3594,944.9
GHCND:USC00248902,"WHITEFISH, MT US",1939-11-01,2014-07-29,48.408,-114.3594,944.9
GHCND:USC00248927,"WHITE SULPHUR SPRINGS, MT US",1894-04-01,1978-10-31,46.5431,-110.9058,1572.8
GHCND:USC00248930,"WHITE SULPHUR SPRNGS 2, MT US",1978-12-01,2014-10-29,46.5436,-110.9,1536.2
GHCND:USC00248933,"WHITE SULPHUR SPRING, MT US",1949-05-16,1981-11-30,46.68333,-110.86667,1659
GHCND:USC00248936,"WHITE SULPHUR SPRNGS, MT US",1965-05-03,1984-04-24,46.83333,-111.2,1338.4
GHCND:USC00248939,"WHITEWATER, MT US",1951-06-01,2026-01-16,48.75931,-107.62501,708.7
GHCND:USC00248941,"WHITEWATER 18 NE, MT US",2001-06-01,2019-06-30,48.9702,-107.4223,840.6
GHCND:USC00248946,"WHITLASH, MT US",1905-04-01,1906-07-31,48.916667,-111.25,
GHCND:USC00248957,"WIBAUX 2 E, MT US",1895-03-01,2021-11-15,46.9878,-104.1567,821.7
GHCND:USC00248964,"WILDER, MT US",1911-05-01,1917-07-31,47.566667,-108.483333,
GHCND:USC00249009,"WILLOW CREEK 1, MT US",1909-02-01,1910-10-31,45.833333,-110.25,2743.2
GHCND:USC00249011,"WILLOW CREEK RESERVOIR, MT US",1919-08-01,1928-10-31,47.533333,-112.416667,1249.7
GHCND:USC00249015,"WILLOW GLEN FARM, MT US",1910-07-01,1913-11-30,46.116667,-112.85,1543.5
GHCND:USC00249018,"WILSALL, MT US",1950-06-12,1969-06-30,46,-110.66667,1539.8
GHCND:USC00249023,"WILSALL 8 ENE, MT US",1957-04-01,2018-03-31,46.0305,-110.5055,1787.7
GHCND:USC00249025,"WILSALL 10 WSW, MT US",1951-06-25,1956-07-31,45.96667,-110.85,1674
GHCND:USC00249033,"WINIFRED, MT US",1921-11-01,2021-04-07,47.5597,-109.3768,988.5
GHCND:USC00249047,"WINNETT 5 NNE, MT US",1942-05-01,1971-10-31,47.06667,-108.31667,890.9
GHCND:USC00249048,"WINNETT 6 NNE, MT US",2006-02-01,2025-12-31,47.083,-108.3163,871.7
GHCND:USC00249052,"WINNETT 8 ESE, MT US",1949-12-01,1951-09-11,46.939,-108.19661,856.5
GHCND:USC00249054,"WINNETT 12 SW, MT US",2006-01-01,2025-07-31,46.92234,-108.56288,989.1
GHCND:USC00249067,"WISDOM, MT US",1923-01-01,2025-01-31,45.6177,-113.4513,1847.1
GHCND:USC00249082,"WISE RIVER 3 WNW, MT US",1943-05-10,2026-01-13,45.8026,-112.9939,1746.5
GHCND:USC00249092,"WISE RIVER 10 NW, MT US",1950-05-21,1952-10-31,45.88333,-113.11667,1772.1
GHCND:USC00249103,"WOLF POINT, MT US",1905-03-01,2026-01-13,48.0999,-105.6484,637
GHCND:USC00249111,"WOLF POINT 5 ESE, MT US",1941-12-01,1973-04-30,48.08333,-105.53333,606.9
GHCND:USC00249124,"WOLSEY, MT US",1903-05-24,1906-08-31,46.766667,-110.833333,1737.4
GHCND:USC00249129,"WOODVILLE, MT US",1909-01-01,1912-12-31,46.05,-112.45,1936.7
GHCND:USC00249175,"WYOLA 1 SW, MT US",1922-06-01,2006-09-30,45.12167,-107.40611,1136.9
GHCND:USC00249185,"YAAK, MT US",1957-05-01,1960-10-31,48.83333,-115.7,923.8
GHCND:USC00249186,"YAAK 1 W, MT US",1999-02-01,2000-03-31,48.82861,-115.74667,1045.5
GHCND:USC00249187,"YAAK 9 NNE, MT US",1998-01-01,2026-01-18,48.9513,-115.6266,940.3
GHCND:USC00249192,"YALE, MT US",1895-03-19,1906-06-30,46.45,-109.483333,1216.2
GHCND:USC00249240,"YELLOWTAIL DAM, MT US",1948-07-01,2026-01-15,45.3127,-107.9383,1007.4
GHCND:USC00249900,"ZORTMAN, MT US",1965-09-01,2025-10-31,47.9185,-108.5244,1229.9
GHCND:USC00249903,"ZORTMAN 1, MT US",1896-02-01,1914-12-31,47.9,-108.533333,
GHCND:USR0000MANT,"ANTELOPE MONTANA, MT US",1991-10-25,2026-01-19,44.6867,-112.5417,2071.1
GHCND:USR0000MARM,"ARMELLS CREEK MONTANA, MT US",1991-10-25,2026-01-19,47.5867,-108.8694,867.2
GHCND:USR0000MAXO,"AXOLOTL MONTANA, MT US",1991-10-25,1997-07-17,45.2683,-111.8744,2209.8
GHCND:USR0000MBAD,"BADLAND COULEE MONTANA, MT US",1987-11-03,1997-05-07,46.7133,-107.1069,938.8
GHCND:USR0000MBAP,"BADGER PEAK MONTANA, MT US",1986-01-17,2026-01-19,45.6481,-106.5008,1322.8
GHCND:USR0000MBCB,"BC BALDY MONTANA, MT US",1985-07-06,2026-01-19,48.6333,-115.5833,1310.6
GHCND:USR0000MBDP,"BADGER PASS MONTANA, MT US",1992-06-16,2005-10-27,48.1667,-113,2103.1
GHCND:USR0000MBEN,"BENCHMARK MONTANA, MT US",1985-05-23,2026-01-19,47.5,-112.9,1630.7
GHCND:USR0000MBIG,"BIGHORN MOUNTAIN MONTANA, MT US",1991-08-05,2026-01-19,45.0733,-107.8886,2218.9
GHCND:USR0000MBIS,"BIG SNOWY MONTANA, MT US",1991-10-25,2000-01-10,46.7911,-109.6175,1853.2
GHCND:USR0000MBLU,"BLUFF CREEK MONTANA, MT US",1985-01-09,2026-01-19,48.8719,-106.9456,777.2
GHCND:USR0000MBOO,"BOORMAN MONTANA, MT US",2002-06-20,2026-01-19,48.1333,-114.7167,1207.9
GHCND:USR0000MBRA,"BRADSHAW CREEK MONTANA, MT US",1991-10-25,2026-01-19,45.0553,-105.9483,1197.9
GHCND:USR0000MBRE,"BRENNER MONTANA, MT US",1985-01-23,2026-01-19,44.9667,-113.2167,1935.5
GHCND:USR0000MBRO,"BROWNING BFA MONTANA, MT US",2003-10-27,2023-12-13,48.5617,-113.0133,1336.2
GHCND:USR0000MBRV,"BRAVO MONTANA, MT US",1999-09-09,2013-03-13,47.285,-110.3517,1229.9
GHCND:USR0000MBSM,"BIG SHEEP MOUNTAIN MONTANA, MT US",1985-01-23,2026-01-19,47.0167,-105.8167,975.4
GHCND:USR0000MCAM,"CAMP FOUR GULCH MONTANA, MT US",1985-05-23,1997-10-23,47.1667,-114.8,1414.3
GHCND:USR0000MCAN,"CANNONBALL CREEK MONTANA, MT US",1987-11-03,2026-01-19,46.4847,-104.0658,893.1
GHCND:USR0000MCBT,"CABINET TROUT CREEK MONTANA, MT US",2001-09-06,2026-01-19,47.8667,-115.625,716.3
GHCND:USR0000MCHA,"CHAIN BUTTES MONTANA, MT US",1985-01-23,2014-05-13,47.5167,-108.0333,892.5
GHCND:USR0000MCON,"CONDON WORK CENTER MONTANA, MT US",1999-05-06,2026-01-19,47.5361,-113.7172,1122.9
GHCND:USR0000MCYC,"CYCLONE MONTANA, MT US",1986-08-28,2012-10-21,48.7161,-114.3358,1615.4
GHCND:USR0000MDEE,"DEER MOUNTAIN WEST MONTANA, MT US",2001-03-06,2026-01-19,46.0278,-114.0553,2219.6
GHCND:USR0000MDEL,"DELMOE MONTANA, MT US",1991-10-25,1997-07-16,45.9458,-112.2706,1706.9
GHCND:USR0000MDER,"DERBY MOUNTAIN MONTANA, MT US",2001-06-01,2026-01-19,45.5842,-109.8517,2133.6
GHCND:USR0000MDPC,"DEEP CREEK BFA MONTANA, MT US",2003-10-28,2026-01-19,48.3556,-113.1139,1627.6
GHCND:USR0000MDRY,"DRY BLOOD CREEK MONTANA, MT US",1997-07-25,2026-01-19,47.2442,-108.3575,914.4
GHCND:USR0000MENN,"ENNIS MONTANA, MT US",2001-06-06,2026-01-19,45.35,-111.7344,1505.4
GHCND:USR0000MEUR,"EUREKA MONTANA, MT US",2001-07-12,2026-01-19,48.9,-115.0167,853.4
GHCND:USR0000MFIS,"FISHTAIL MONTANA, MT US",1992-10-26,2026-01-19,45.4581,-109.5714,1386.8
GHCND:USR0000MFLA,"FLAT WILLOW MONTANA, MT US",1987-11-03,1997-07-24,46.7483,-108.7172,1222.2
GHCND:USR0000MFOH,"FORT HOWES MONTANA, MT US",1987-10-22,2026-01-19,45.2969,-106.1614,1030.2
GHCND:USR0000MFOR,"FORT BELKNAP MONTANA, MT US",1992-07-27,2026-01-19,48.3042,-108.7189,812.3
GHCND:USR0000MFOU,"FOUR MILE MONTANA, MT US",2001-06-04,2026-01-19,45.3333,-110.2167,1737.4
GHCND:USR0000MFRE,"FRENCH CREEK MONTANA, MT US",1999-08-12,2026-01-19,45.33,-112.9128,2262.2
